Museum Name	Legal Name	Museum Type	Latitude	Longitude	Income	Revenue
ALASKA AVIATION HERITAGE MUSEUM	ALASKA AVIATION HERITAGE MUSEUM	HISTORY MUSEUM	61.17925	-149.97254	602912.0	550236.0
ALASKA BOTANICAL GARDEN	ALASKA BOTANICAL GARDEN INC	ARBORETUM, BOTANICAL GARDEN, OR NATURE CENTER	61.1689	-149.76708	1379576.0	1323742.0
ALASKA CHALLENGER CENTER FOR SPACE SCIENCE TECHNOLOGY	ALASKA CHALLENGER CENTER FOR SPACE SCIENCE TECHNOLOGY INC	SCIENCE & TECHNOLOGY MUSEUM OR PLANETARIUM	60.56149	-151.21598	740030.0	729080.0
ALASKA EDUCATORS HISTORICAL SOCIETY	ALASKA EDUCATORS HISTORICAL SOCIETY	HISTORIC PRESERVATION	60.5628	-151.26597	0.0	0.0
ALASKA HERITAGE MUSEUM	ALASKA AVIATION HERITAGE MUSEUM	HISTORY MUSEUM	61.17925	-149.97254	602912.0	550236.0
ALASKA JEWISH MUSEUM	ALASKA JEWISH HISTORICAL MUSEUM AND CULTURAL CENTER	GENERAL MUSEUM	61.18946	-149.86071	2658938.0	34374.0
ALASKA LIGHTHOUSE ASSOCIATION	ALASKA LIGHTHOUSE ASSOCIATION	HISTORIC PRESERVATION	58.28299	-134.40583	16500.0	16500.0
ALASKA MASONIC LIBRARY AND MUSEUM FOUNDATION	ALASKA MASONIC LIBRARY AND MUSEUM FOUNDATION	GENERAL MUSEUM	61.21833	-149.89456	0.0	0.0
ALASKA MINING HALL OF FAME FOUNDATION	ALASKA MINING HALL OF FAME FOUNDATION	HISTORY MUSEUM	64.85079	-147.82945	184295.0	31393.0
ALASKA NATIVE HERITAGE CENTER	ALASKA NATIVE HERITAGE CENTER INC	GENERAL MUSEUM	61.23361	-149.71566	4502727.0	4050394.0
ALASKA SPORTS HALL OF FAME	ALASKA SPORTS HALL OF FAME INC	GENERAL MUSEUM	61.08741	-149.6926	1370930.0	615273.0
ALASKA STATE MUSEUM	FRIENDS OF THE ALASKA STATE MUSEUM	GENERAL MUSEUM	58.30048	-134.4148	182675.0	129192.0
ALASKA TERRITORIAL CAVALRY MOTORIZED	ALASKA TERRITORIAL CAVALRY MOTORIZED	GENERAL MUSEUM	61.19007	-149.91195	0.0	0.0
ALASKA TROOPER MUSEUM	FRATERNAL ORDER OF ALASKA STATE TROOPERS CHARITY CORPORATIO	GENERAL MUSEUM	61.21765	-149.88622	769702.0	221807.0
ALASKA VETERANS MUSEUM	ALASKA VETERANS MUSEUM	HISTORY MUSEUM	61.21406	-149.87855	0.0	0.0
ALASKA WILDLIFE CONSERVATION CENTER	ALASKA WILDLIFE CONSERVATION CENTER INC	ARBORETUM, BOTANICAL GARDEN, OR NATURE CENTER	60.96435	-149.13368	3331564.0	2793744.0
ALASKA ZOO	ALASKA ZOO	ZOO, AQUARIUM, OR WILDLIFE CONSERVATION	61.12476	-149.79254	3310088.0	2393748.0
ALPINE HISTORICAL SOCIETY	ALPINE HISTORICAL SOCIETY	HISTORIC PRESERVATION	61.76392	-148.38192	157509.0	157509.0
ALUTIIQ HERITAGE ENDOWMENT	THE ALUTIIQ HERITAGE ENDOWMENT	HISTORIC PRESERVATION	61.18152	-149.88518	331826.0	15734.0
ALUTIIQ HERITAGE FOUNDATION	ALUTIIQ HERITAGE FOUNDATION	GENERAL MUSEUM	57.78869	-152.4025	1103875.0	1055839.0
ANCHORAGE CLAY ARTS GUILD	ANCHORAGE CLAY ARTS GUILD	ART MUSEUM	61.18495	-149.89178	0.0	0.0
ANCHORAGE GENEALOGICAL SOCIETY	ANCHORAGE GENEALOGICAL SOCIETY	HISTORIC PRESERVATION	61.18495	-149.89178	8282.0	8282.0
ANCHORAGE MUSEUM	ANCHORAGE MUSEUM FOUNDATION	GENERAL MUSEUM	61.21608	-149.8853	6851982.0	4116780.0
BARANOV MUSEUM	KODIAK HISTORICAL SOCIETY	HISTORIC PRESERVATION	57.7885	-152.39915	333248.0	288158.0
BRISTOL BAY HISTORICAL SOCIETY	BRISTOL BAY HISTORICAL SOCIETY INC	HISTORIC PRESERVATION	58.85984	-156.71037	0.0	0.0
BUNNELL STREET GALLERY	BUNNELL STREET ARTS CENTER	ART MUSEUM	59.64002	-151.54459	335104.0	335104.0
CAPE DECISION LIGHTHOUSE SOCIETY	CAPE DECISION LIGHTHOUSE SOCIETY	HISTORIC PRESERVATION	57.05246	-135.3427	0.0	0.0
CAPE ST ELIAS LIGHTKEEPERS ASSOCIATION	CAPE ST ELIAS LIGHTKEEPERS ASSOCIATION	HISTORIC PRESERVATION	60.07439	-147.99241	59819.0	59819.0
CARR-GOTTSTEIN GALLERY	ALASKA PACIFIC UNIVERSITY	ART MUSEUM	61.18889	-149.80347	66512448.0	63692296.0
CENTER FOR ALASKAN COASTAL STUDIES	CENTER FOR ALASKAN COASTAL STUDIES	ARBORETUM, BOTANICAL GARDEN, OR NATURE CENTER	59.64585	-151.52423	914275.0	908922.0
CHILKAT INDIAN VILLAGE	FOUNDATION FOR THE CHILKAT CENTER FOR THE ARTS	HISTORIC PRESERVATION	59.24675	-135.47365	0.0	0.0
CHILKAT VALLEY HISTORICAL SOCIETY	CHILKAT VALLEY HISTORICAL SOCIETY INC	HISTORIC PRESERVATION	59.24675	-135.47365	0.0	0.0
CHUGIAK-EAGLE RIVER HISTORICAL SOCIETY	CHUGIAK-EAGLE RIVER HISTORICAL SOCIETY	HISTORIC PRESERVATION	61.38967	-149.47465	0.0	0.0
CIRCLE DISTRICT HISTORICAL SOCIETY	CIRCLE DISTRICT HISTORICAL SOCIETY	HISTORIC PRESERVATION	65.34556	-145.14026	0.0	0.0
CLAUDIA KELSEY DOLL MUSEUM	CLAUDIA KELSEY DOLL MUSEUM TR DBA AUNT CLAUDIAS DOLLS A MUS	GENERAL MUSEUM	58.3005	-134.40561	0.0	0.0
CLAUSEN MEMORIAL MUSEUM	CLAUSEN MEMORIAL MUSEUM	HISTORY MUSEUM	56.80634	-132.96963	86045.0	86045.0
COPPER VALLEY HISTORICAL SOCIETY	COPPER VALLEY HISTORICAL SOCIETY	HISTORIC PRESERVATION	61.92025	-145.38294	0.0	0.0
CORDOVA HISTORICAL SOCIETY	CORDOVA HISTORICAL SOCIETY	HISTORIC PRESERVATION	60.07439	-147.99241	47693.0	34193.0
DENALI NATIONAL PARK AND PRESERVE	DENALI EDUCATION CENTER	HISTORIC PRESERVATION	63.62586	-150.90305	1422621.0	1416741.0
EAGLE HISTORICAL SOCIETY	EAGLE HISTORICAL SOCIETY OF ALASKA	HISTORIC PRESERVATION	64.78917	-141.20294	16773.0	14657.0
EAGLE HISTORICAL SOCIETY OF ALASKA	EAGLE HISTORICAL SOCIETY OF ALASKA	HISTORIC PRESERVATION	64.78917	-141.20294	16773.0	14657.0
EAGLE RIVER NATURE CENTER	FRIENDS OF EAGLE RIVER NATURE CENTER INC	ARBORETUM, BOTANICAL GARDEN, OR NATURE CENTER	61.23644	-149.27332	295812.0	268677.0
FAIRBANKS CHILDREN'S MUSEUM	FAIRBANKS CHILDRENS MUSEUM	CHILDREN'S MUSEUM	64.84217	-147.72078	156377.0	156377.0
FAIRBANKS COMMUNITY MUSEUM	THE FAIRBANKS COMMUNITY MUSEUM	HISTORY MUSEUM	64.84231	-147.72457	0.0	0.0
FAIRBANKS HOCKEY HALL OF FAME	FAIRBANKS HOCKEY HALL OF FAME INC	GENERAL MUSEUM	64.83881	-147.70136	35320.0	31075.0
GASTINEAU CHANNEL HISTORICAL SOCIETY	GASTINEAU CHANNEL HISTORICAL SOCIETY	HISTORIC PRESERVATION	58.30836	-134.39819	0.0	0.0
GLENN HIGHWAY SCENIC BYWAY ASSOCIATION	GLENN HIGHWAY SCENIC BYWAY ASSOCIATION INC	HISTORIC PRESERVATION	61.31504	-149.52682	0.0	0.0
GOLDBELT HERITAGE FOUNDATION	GOLDBELT HERITAGE FOUNDATION	HISTORIC PRESERVATION	58.33036	-134.47205	1549084.0	1549084.0
GUSTAVUS HISTORICAL ARCHIVES AND ANTIQUITIES	GUSTAVUS HISTORICAL ARCHIVES ANDANTIQUITIES	HISTORIC PRESERVATION	58.82437	-136.97103	0.0	0.0
HAL HOPKINS WW II MEMORIAL	HAL HOPKINS WW II MEMORIAL INC	HISTORIC PRESERVATION	61.19491	-149.76884	0.0	0.0
HAMMER MUSEUM	HAMMER MUSEUM INC	HISTORY MUSEUM	59.24675	-135.47365	0.0	0.0
HISTORIC HALL	HISTORIC HALL INC	HISTORIC PRESERVATION	64.85079	-147.82945	0.0	0.0
HOMER SOCIETY OF NATURAL HISTORY	HOMER SOCIETY OF NATURAL HISTORY INC	NATURAL HISTORY MUSEUM	59.6447	-151.5504	780811.0	742408.0
HOPE AND SUNRISE HISTORICAL SOCIETY	HOPE AND SUNRISE HISTORICAL SOCIETY	HISTORIC PRESERVATION	60.88669	-149.54407	0.0	0.0
HUBBELL FAMILY HISTORICAL SOCIETY	HUBBELL FAMILY HISTORICAL SOCIETY	HISTORIC PRESERVATION	60.58442	-151.23509	0.0	0.0
IDITAROD NATIONAL HISTORIC TRAIL	IDITAROD NATIONAL HISTORIC TRAIL INC	HISTORIC PRESERVATION	61.19811	-149.92363	91510.0	91510.0
INTERNATIONAL GALLERY OF CONTEMPORARY ARTS	INTERNATIONAL GALLERY OF CONTEMPORARY ARTS INC	ART MUSEUM	61.21824	-149.88931	48842.0	39227.0
JENSEN-OLSON ARBORETUM	FRIENDS OF JENSEN-OLSON ARBORETUM	ARBORETUM, BOTANICAL GARDEN, OR NATURE CENTER	58.48383	-134.77955	0.0	0.0
JESSE LEE HOME	FRIENDS OF THE JESSE LEE HOME	HISTORIC PRESERVATION	60.20885	-149.38716	1037819.0	1037819.0
JILKAAT KWAAN HERITAGE CENTER	JILKATT KWANN CULTURAL HERITAGE CENTER - BALD EAGLE OBSERVA	GENERAL MUSEUM	59.24675	-135.47365	78314.0	78314.0
JUNEAU DOUGLAS CITY MUSEUM	FRIENDS OF THE JUNEAU-DOUGLAS CITY MUSEUM	GENERAL MUSEUM	58.30418	-134.42701	0.0	0.0
KACHEMAK HERITAGE LAND TRUST	KACHEMAK HERITAGE LAND TRUST INC	ARBORETUM, BOTANICAL GARDEN, OR NATURE CENTER	59.64583	-151.53416	454933.0	287801.0
KAKE TRIBAL HERITAGE FOUNDATION	KAKE TRIBAL HERITAGE FOUNDATION	HISTORIC PRESERVATION	56.97824	-133.94876	0.0	0.0
KASILOF REGIONAL HISTORICAL ASSOCIATION	KASILOF REGIONAL HISTORICAL ASSOCIATION	HISTORIC PRESERVATION	60.33002	-151.28922	37843.0	37598.0
KENAI HISTORICAL SOCIETY	KENAI HISTORICAL SOCIETY INC	HISTORIC PRESERVATION	60.58442	-151.23509	0.0	0.0
KNIK MUSEUM	WASILLA-KINK HISTORICAL SOCIETY	HISTORY MUSEUM	61.58245	-149.43945	39167.0	36901.0
KODIAK HISTORICAL SOCIETY	KODIAK HISTORICAL SOCIETY	HISTORIC PRESERVATION	57.7885	-152.39915	333248.0	288158.0
KODIAK MARITIME MUSEUM AND ART CENTER	KODIAK MARITIME MUSEUM AND ART CENTER	ART MUSEUM	57.79263	-152.40165	85602.0	85352.0
MARIE DRAKE PLANETARIUM	FRIENDS OF THE MARIE DRAKE PLANETARIUM	SCIENCE & TECHNOLOGY MUSEUM OR PLANETARIUM	58.36674	-134.61082	0.0	0.0
MCCARTHY-KENNICOTT HISTORICAL MUSEUM	MCCARTHY-KENNICOTT HISTORICAL MUSEUM	HISTORIC PRESERVATION	62.1077	-145.52846	0.0	0.0
MUSEUM OF ALASKA TRANSPORTATION AND INDUSTRY	MUSEUM OF ALASKA TRANSPORATION AND INDUSTRY INC	HISTORY MUSEUM	61.58414	-149.44139	87442.0	67641.0
MUSEUM OF THE ALEUTIANS	MUSEUM OF THE ALEUTIANS	GENERAL MUSEUM	53.87139	-166.54126	638447.0	609946.0
MUSEUMS ALASKA	MUSEUMS ALASKA INCORPORATED	GENERAL MUSEUM	59.66896	-151.48517	433429.0	433429.0
NEW YORK ALASKA HOUSE	NEW YORK ALASKA HOUSE INC	ART MUSEUM	61.13325	-149.94851	50.0	50.0
OCEANSALASKA	OCEANSALASKA	ZOO, AQUARIUM, OR WILDLIFE CONSERVATION	55.35076	-131.67274	892091.0	534898.0
OSCAR ANDERSON HOUSE	ALASKA ASSOCIATION FOR HISTORIC PRESERVATION INC	HISTORIC PRESERVATION	61.22198	-149.88169	133637.0	133637.0
PALMER HISTORICAL SOCIETY	PALMER HISTORICAL SOCIETY INC	HISTORIC PRESERVATION	61.59873	-149.11008	0.0	0.0
PALMER MUSEUM OF HISTORY AND ART	PALMER MUSEUM OF HISTORY AND ART	GENERAL MUSEUM	61.59857	-149.11359	161428.0	144442.0
PELELIO WAR HISOTIRCAL SOCIETY	PELELIO WAR HISTORICAL SOCIETY INC	HISTORIC PRESERVATION	61.68606	-149.22797	0.0	0.0
PIONEER MEMORIAL PARK	PIONEER MEMORIAL PARK INC	ARBORETUM, BOTANICAL GARDEN, OR NATURE CENTER	64.83685	-147.76725	0.0	0.0
PIONEERS OF ALASKA	PIONEERS OF ALASKA	HISTORIC PRESERVATION	64.49805	-165.41115	587933.0	29269.0
PRATT MUSEUM	PATRONS OF THE PRATT SOCIETY	ART MUSEUM	59.6447	-151.5504	65544.0	65544.0
PRIBILOF ALEUTS	PRIBILOF ALEUTS INC	GENERAL MUSEUM	61.14654	-149.87117	0.0	0.0
RESURRECTION BAY HISTORICAL SOCIETY	RESURRECTION BAY HISTORICAL SOCIETY INC	HISTORIC PRESERVATION	60.20885	-149.38716	0.0	0.0
RIO GRANDE MODELING & HISTORICAL SOCIETY	RIO GRANDE MODELING & HISTORICAL SOCIETY	HISTORIC PRESERVATION	38.89506	-104.75644	31028.0	28358.0
RUSSIAN ORTHODOX MUSEUM	RUSSIAN ORTHODOX SACRED SITES IN ALASKA INC	HISTORIC PRESERVATION	61.19955	-149.73354	349281.0	349281.0
RUSSIAN ORTHODOX SACRED SITES IN ALASKA	RUSSIAN ORTHODOX SACRED SITES IN ALASKA INC	HISTORIC PRESERVATION	61.19955	-149.73354	349281.0	349281.0
SAMUEL FOX MUSEUM	SAMUEL K FOX MUSEUM ASSOC	GENERAL MUSEUM	59.04004	-158.45869	0.0	0.0
SEALASKA HERITAGE INSTITUTE	SEALASKA HERITAGE INSTITUTE	GENERAL MUSEUM	58.30039	-134.40814	7870397.0	7812834.0
SEWARD ASSOCIATION FOR THE ADVANCEMENT OF MARINE SCIENCE	SEWARD ASSOCIATION FOR THE ADVANCEMENT OF MARINE SCIENCE	ZOO, AQUARIUM, OR WILDLIFE CONSERVATION	60.20885	-149.38716	9601562.0	9469200.0
SEWARD COMMUNITY LIBRARY	SEWARD COMMUNITY LIBRARY ASSOCIATION INC	GENERAL MUSEUM	60.20885	-149.38716	25020.0	20137.0
SEWARD MUSEUM	RESURRECTION BAY HISTORICAL SOCIETY INC	GENERAL MUSEUM	60.20885	-149.38716	0.0	0.0
SHELDON JACKSON MUSEUM	FRIENDS OF SHELDON JACKSON MUSEUM	NATURAL HISTORY MUSEUM	57.05064	-135.32213	85605.0	49871.0
SHELDON MUSEUM AND CULTURAL CENTER	SHELDON MUSEUM AND CULTURAL CENTER INC	HISTORY MUSEUM	59.24675	-135.47365	323889.0	323889.0
SIMON PANEAK MEMORIAL MUSEUM	SIMON PANEAK MEMORIAL MUSEUM INC	GENERAL MUSEUM	68.24085	-151.89265	0.0	0.0
SITKA HISTORICAL SOCIETY	SITKA HISTORICAL SOCIETY INC	HISTORIC PRESERVATION	57.04922	-135.34093	186233.0	160043.0
SITKA MARITIME HERITAGE SOCIETY	SITKA MARITIME HERITAGE SOCIETY INC	HISTORY MUSEUM	57.06019	-135.33625	36802.0	34039.0
SITKA SOUND SCIENCE CENTER	SITKA SOUND SCIENCE CENTER	ARBORETUM, BOTANICAL GARDEN, OR NATURE CENTER	57.04983	-135.32401	1958626.0	1923217.0
SOLDOTNA HISTORICAL SOCIETY	SOLDOTNA HISTORICAL SOCIETY AND MUSEUM INC	HISTORIC PRESERVATION	60.49083	-151.0738	15193.0	15193.0
SOLDOTNA HISTORICAL SOCIETY AND MUSEUM	SOLDOTNA HISTORICAL SOCIETY AND MUSEUM INC	HISTORIC PRESERVATION	60.4771	-151.0871	15193.0	15193.0
STORIS MUSEUM	STORIS MUSEUM	GENERAL MUSEUM	58.29323	-134.43055	0.0	0.0
TALKEETNA HISTORICAL SOCIETY	TALKEETNA HISTORICAL SOCIETY	HISTORIC PRESERVATION	62.1755	-149.90017	85074.0	78315.0
TANANA YUKON HISTORICAL SOCIETY	TANANA YUKON HISTORICAL SOCIETY	HISTORIC PRESERVATION	64.84339	-147.71869	19338.0	18705.0
TENAKEE HISTORICAL COLLECTION	TENAKEE HISTORICAL COLLECTION	HISTORIC PRESERVATION	57.77996	-135.21791	0.0	0.0
TOCHAK HISTORICAL SOCIETY	TOCHAK HISTORICAL SOCIETY	HISTORIC PRESERVATION	62.91264	-154.94429	0.0	0.0
TONGASS HISTORICAL SOCIETY	TONGASS HISTORICAL SOCIETY INC	HISTORIC PRESERVATION	55.34242	-131.64029	0.0	0.0
TREADWELL HISTORIC PRESERVATION & RESTORATION SOCIETY	TREADWELL HISTORIC PRESERVATION AND RESTORATION SOCIETY INC	HISTORIC PRESERVATION	58.27846	-134.3996	0.0	0.0
VALDEZ HISTORICAL PRESERVATION AND RESTORATION COMMITTEE	VALDEZ HISTORICAL PRESERVATION AND RESTORATION COMMITTEE	HISTORIC PRESERVATION	61.10482	-146.21652	0.0	0.0
VALDEZ MUSEUM AND HISTORICAL ARCHIVE ASSOCIATION	VALDEZ MUSEUM AND HISTORICAL ARCHIVE ASSOCIATION INCORPORAT	HISTORY MUSEUM	61.10482	-146.21652	678148.0	645570.0
WASILLA-KINK HISTORICAL SOCIETY	WASILLA-KINK HISTORICAL SOCIETY	HISTORIC PRESERVATION	61.58245	-149.43945	39167.0	36901.0
WESTERN HISTORY ASSOCIATION	WESTERN HISTORY ASSOCIATION	HISTORIC PRESERVATION	64.81712	-147.87837	336681.0	224685.0
WHALE PROJECT	WHALE PROJECT	HISTORIC PRESERVATION	58.37524	-134.7312	327481.0	327481.0
WHITESTONE FARMS	WHITESTONE FARMS INC	HISTORIC PRESERVATION	64.10761	-145.7709	357970.0	193187.0
WHITTIER MUSEUM ASSOCIATION	WHITTIER MUSEUM ASSOCIATION	HISTORY MUSEUM	60.77	-148.68	0.0	0.0
AFRICAN AMERICAN HERITAGE TRAIL	FRIENDS OF AFRICAN AMERICAN HERITAGE TRAIL INC	GENERAL MUSEUM	30.68582	-88.04614	0.0	0.0
AIRCRAFT ENGINE HISTORICAL SOCIETY	AIRCRAFT ENGINE HISTORICAL SOCIETY INC	HISTORIC PRESERVATION	34.75203	-86.63848	0.0	0.0
ALABAMA CENTER FOR AMERICAN HISTORY	ALABAMA CENTER FOR AMERICAN HISTORY INC	HISTORY MUSEUM	33.35966	-86.59573	312533.0	312533.0
ALABAMA CENTER OF MILITARY HISTORY	ALABAMA CENTER OF MILITARY HISTORY	HISTORIC PRESERVATION	34.69017	-86.58225	64159.0	64159.0
ALABAMA CITY HISTORICAL ASSOCIATION	ALABAMA CITY HISTORICAL ASSOCIATION	HISTORIC PRESERVATION	33.99526	-86.08196	0.0	0.0
ALABAMA COMPANY JAMESTOWNE SOCIETY	ALABAMA COMPANY JAMESTOWNE SOCIETY	HISTORIC PRESERVATION	34.6575	-86.52653	0.0	0.0
ALABAMA CONSTITUTION VILLAGE	ALABAMA CONSTITUTION VILLAGE FOUNDATION	HISTORIC PRESERVATION	34.72664	-86.57223	1101454.0	806811.0
ALABAMA CONSTITUTION VILLAGE FOUNDATION	ALABAMA CONSTITUTION VILLAGE FOUNDATION	GENERAL MUSEUM	34.72861	-86.58469	1101454.0	806811.0
ALABAMA GOSPEL MUSIC CULTURAL ARTS CENTER	ALABAMA GOSPEL MUSIC CULTURAL ARTS CENTER INC	HISTORIC PRESERVATION	33.5115	-86.84821	21884.0	21884.0
ALABAMA GOVERNORS MANSION	FRIENDS OF THE ALABAMA GOVERNORS MANSION INC	HISTORIC PRESERVATION	32.36426	-86.3031	0.0	0.0
ALABAMA HISTORIC IRONWORKS COMMISSION	ALABAMA HISTORIC IRONWORKS COMMISSION	HISTORIC PRESERVATION	33.26851	-87.08321	1748733.0	1642172.0
ALABAMA HISTORICAL RADIO SOCIETY	ALABAMA HISTORICAL RADIO SOCIETY INC	HISTORIC PRESERVATION	33.51784	-86.81185	0.0	0.0
ALABAMA JAZZ HALL OF FAME	ALABAMA JAZZ HALL OF FAME INC	GENERAL MUSEUM	33.51458	-86.81283	369221.0	368247.0
ALABAMA LABOR ARCHIVES AND HISTORY	ALABAMA LABOR ARCHIVES AND HISTORY	HISTORY MUSEUM	32.37285	-86.30467	0.0	0.0
ALABAMA LIGHTHOUSE ASSOCIATION	ALABAMA LIGHTHOUSE ASSOCIATION	HISTORIC PRESERVATION	30.69651	-88.04401	0.0	0.0
ALABAMA MENS HALL OF FAME	ALABAMA MENS HALL OF FAME AN ELEEMOSYNARY CORP	GENERAL MUSEUM	33.46411	-86.78814	7618.0	7618.0
ALABAMA MINING MUSEUM	ALABAMA MINING MUSEUM	HISTORY MUSEUM	33.73169	-87.09091	62187.0	62187.0
ALABAMA NEGRO LEAGUE BASEBALL MUSEUM FOUNDATION	ALABAMA NEGRO LEAGUE BASEBALLMUSEUM FOUNDATION	GENERAL MUSEUM	33.51634	-86.80581	0.0	0.0
ALABAMA RIVER REGION ARTS CENTER	ALABAMA RIVER REGION ARTS CENTER	ART MUSEUM	32.59985	-86.20616	0.0	0.0
ALABAMA SPORTS HALL OF FAME	ALABAMA SPORTS HALL OF FAME	GENERAL MUSEUM	33.52522	-86.81047	586834.0	488198.0
ALABAMA TRAIL OF TEARS CORRIDOR ASSOCIATION	ALABAMA TRAIL OF TEARS CORRIDOR ASSOCIATION	HISTORIC PRESERVATION	34.7084	-86.61731	0.0	0.0
ALABAMA TRUST FOR HISTORIC PRESERVATION	ALABAMA TRUST FOR HISTORIC PRESERVATION	HISTORIC PRESERVATION	32.56319	-88.13818	118576.0	118576.0
ALABAMA VETERANS MUSEUM & ARCHIVES	ALABAMA VETERANS MUSEUM & ARCHIVES	HISTORY MUSEUM	34.80672	-86.97072	126728.0	118567.0
ALABAMA WILDLIFE CENTER	ALABAMA WILDLIFE CENTER	ZOO, AQUARIUM, OR WILDLIFE CONSERVATION	33.32452	-86.79516	463192.0	440703.0
ALABAMA ZOOLOGICAL SOCIETY	ALABAMA ZOOLOGICAL SOCIETY	ZOO, AQUARIUM, OR WILDLIFE CONSERVATION	33.48437	-86.77398	0.0	0.0
ALDRIDGE GARDENS	ALDRIDGE GARDENS	ARBORETUM, BOTANICAL GARDEN, OR NATURE CENTER	33.38533	-86.79432	538889.0	538889.0
ALICEVILLE HISTORICAL PRESERVATION COMMISSION	ALICEVILLE HISTORICAL PRESERVATION COMMISSION INC	HISTORIC PRESERVATION	33.13138	-88.13725	0.0	0.0
ALICEVILLE MUSEUM	ALICEVILLE MUSEUM INC	HISTORY MUSEUM	33.12964	-88.16462	72827.0	72827.0
ALTAMONT SCHOOL	ALTAMONT SCHOOL	ART MUSEUM	33.51706	-86.75704	6812202.0	6772233.0
AMERICAN INDIAN MUSEUM	AMERICAN INDIAN MUSEUM	NATURAL HISTORY MUSEUM	34.75987	-86.59152	0.0	0.0
ANCIENT AFRICA ENSLAVEMENT AND CIVIL WAR MUSEUM	ANCIENT AFRICA ENSLAVEMENT AND CIVIL WAR MUSEUM	HISTORY MUSEUM	32.40797	-87.01614	0.0	0.0
ARAB HISTORICAL SOCIETY	ARAB HISTORICAL SOCIETY	HISTORIC PRESERVATION	34.32768	-86.49274	0.0	0.0
ARLINGTON HISTORICAL ASSOCIATION	ARLINGTON HISTORICAL ASSOCIATION	HISTORIC PRESERVATION	33.50743	-86.747	0.0	0.0
ARTSREVIVE	ARTSREVIVE COMMUNITY DEVELOPMENT CORPORATION	HISTORIC PRESERVATION	32.40623	-87.02243	206923.0	206923.0
ASHVILLE MASONIC LODGE COUNCIL	THE ASHVILLE MASONIC LODGE COUNCIL INC	HISTORIC PRESERVATION	33.79484	-86.27299	0.0	0.0
ATCHISON COUNTY HISTORICAL SOCIETY	ATCHISON COUNTY HISTORICAL SOCIETY	HISTORIC PRESERVATION	39.56301	-95.12723	43103.0	43103.0
ATMORE HISTORICAL SOCIETY	ATMORE HISTORICAL SOCIETY	HISTORIC PRESERVATION	31.00903	-87.49114	0.0	0.0
AUBURN PRESERVATION LEAGUE	AUBURN PRESERVATION LEAGUE	HISTORIC PRESERVATION	32.61251	-85.47712	0.0	0.0
AUTAUGA COUNTY HERITAGE ASSOCIATION	AUTAUGA COUNTY HERITAGE ASSOCIATION	HISTORIC PRESERVATION	32.45953	-86.47176	112856.0	51666.0
AUTAUGA GENEALOGICAL SOCIETY	AUTAUGA GENEALOGICAL SOCIETY	HISTORIC PRESERVATION	32.46438	-86.42472	0.0	0.0
B BATTERY 711 AAA GUN BATTALION MEMORIAL	B BATTERY 711 AAA GUN BATTALION MEMORIAL	HISTORIC PRESERVATION	30.87652	-87.78158	0.0	0.0
BALDWIN COUNTY EXPRESS	BALDWIN COUNTY EXPRESS INC	HISTORY MUSEUM	30.50572	-87.60636	0.0	0.0
BALDWIN HERITAGE MUSEUM ASSOCIATION	BALDWIN HERITAGE MUSEUM ASSOCIATION INC	GENERAL MUSEUM	30.39654	-87.56298	63718.0	56883.0
BARBOUR COUNTY GOVERNORS TRAIL	BARBOUR COUNTY GOVERNORS TRAIL COUNCIL INC	HISTORIC PRESERVATION	31.84169	-85.43541	0.0	0.0
BARE HANDS GALLERY	BARE HANDS GALLERY INC	ART MUSEUM	33.51634	-86.80581	54487.0	54487.0
BAYBEARS CHARITIES	BAYBEARS CHARITIES INC	GENERAL MUSEUM	30.64483	-88.11585	21702.0	13548.0
BELLINGRATH GARDENS AND HOME	BELLINGRATH GARDENS AND HOME FOUNDATION INC	ARBORETUM, BOTANICAL GARDEN, OR NATURE CENTER	30.4637	-88.15263	3110338.0	2733087.0
BERMAN MUSEUM OF WORLD HISTORY	FARLEY L BERMAN FOUNDATION INC	GENERAL MUSEUM	33.65842	-85.82646	150662.0	143128.0
BESSEMER HALL OF HISTORY	BESSEMER HALL OF HISTORY INC	HISTORY MUSEUM	33.40094	-86.95051	9281.0	8783.0
BIRMINGHAM BLACK RADIO MUSEUM	BIRMINGHAM BLACK RADIO MUSEUM	GENERAL MUSEUM	33.49047	-86.80692	0.0	0.0
BIRMINGHAM CIVIL RIGHTS INSTITUTE	BIRMINGHAM CIVIL RIGHTS INSTITUTE	HISTORIC PRESERVATION	33.5128	-86.81171	2736160.0	2736160.0
BIRMINGHAM HISTORICAL SOCIETY	BIRMINGHAM HISTORICAL SOCIETY	HISTORIC PRESERVATION	33.49589	-86.78154	210641.0	136632.0
BIRMINGHAM HISTORY CENTER	BIRMINGHAM HISTORY CENTER	HISTORY MUSEUM	33.51496	-86.80949	188366.0	188366.0
BIRMINGHAM JEFFERSON HISTORICAL SOCIETY TERM	BIRMINGHAM JEFFERSON HISTORICAL SOCIETY TERM	HISTORIC PRESERVATION	33.50743	-86.747	16565.0	16565.0
BIRMINGHAM LANDMARKS	BIRMINGHAM LANDMARKS INC	HISTORIC PRESERVATION	33.51496	-86.80949	3894335.0	3837208.0
BIRMINGHAM MUSEUM OF ART	BIRMINGHAM MUSEUM OF ART MEMBERS	ART MUSEUM	33.52206	-86.80939	25404.0	25404.0
BIRMINGHAM ZOO	BIRMINGHAM ZOO INC	ZOO, AQUARIUM, OR WILDLIFE CONSERVATION	33.48437	-86.77398	10969184.0	8932428.0
BLACK BELT MUSEUM	FRIENDS OF THE@BLACK BELT MUSEUM	GENERAL MUSEUM	32.73363	-88.1937	0.0	0.0
BLOUNTSVILLE HISTORICAL SOCIETY	BLOUNTSVILLE HISTORICAL SOCIETY	HISTORIC PRESERVATION	34.1104	-86.60181	0.0	0.0
BLUE AND GREY MUSEUM OF NORTH ALABAMA	BLUE AND GREY MUSEUM OF NORTH ALABAMA	HISTORY MUSEUM	34.59053	-86.98777	34828.0	34828.0
BRIDGEPORT AREA HISTORIC ASSOCIATION	BRIDGEPORT AREA HISTORIC ASSOCIATION	HISTORY MUSEUM	34.94947	-85.71959	8095.0	8095.0
BROWN HAWKINS RURAL LEARNING CENTER	BROWN HAWKINS RURAL LEARNING CENTER	HISTORIC PRESERVATION	32.3314	-86.25291	0.0	0.0
BROWNS CREEK PRESERVATION ASSOCIATION	BROWNS CREEK PRESERVATION ASSOCIATION	ARBORETUM, BOTANICAL GARDEN, OR NATURE CENTER	34.36512	-86.34533	0.0	0.0
BRUNDIDGE HISTORICAL SOCIETY	BRUNDIDGE HISTORICAL SOCIETY	HISTORIC PRESERVATION	31.72046	-85.81574	64294.0	-4221.0
BURRITT MUSEUM	BURRITT MUSEUM ASSOCIATION INC	HISTORY MUSEUM	34.72003	-86.53769	1423105.0	1252295.0
BUTLER COUNTY HISTORICAL & GENEALOGICAL SOCIETY	BUTLER COUNTY HISTORICAL AND GENEALOGICAL SOCIETY INC	HISTORIC PRESERVATION	31.83257	-86.62734	0.0	0.0
CALHOUN COUNTY SPORTS HALL OF FAME	CALHOUN COUNTY SPORTS HALL OF FAME	GENERAL MUSEUM	33.82798	-85.78071	28050.0	28050.0
CAPRI COMMUNITY FILM SOCIETY	CAPRI COMMUNITY FILM SOCIETY INC	GENERAL MUSEUM	32.35213	-86.29161	419396.0	419396.0
CENTER FOR CULTURAL ARTS	GADSDEN CULTURAL ARTS FOUNDATION INC	GENERAL MUSEUM	34.01391	-86.00513	2714683.0	1745386.0
CENTER POINT WOMENS PRESERVATION SOCIETY	CENTER POINT WOMENS PRESERVATION SOCIETY	HISTORIC PRESERVATION	33.66709	-86.67516	0.0	0.0
CENTRAL CARVER FOUNDATION	CENTRAL-CARVER FOUNDATION INC	GENERAL MUSEUM	34.02423	-86.01404	1018.0	1018.0
CENTRAL CARVER LEGACY MUSEUM	CENTRAL-CARVER FOUNDATION INC	GENERAL MUSEUM	34.00027	-85.95643	1018.0	1018.0
CHAMBER COUNTY MUSEUM	CHAMBER COUNTY MUSEUM INC	GENERAL MUSEUM	32.90652	-85.43804	0.0	0.0
CHEROKEE HISTORICAL MUSEUM	CHEROKEE COUNTY HISTORICAL SOCIETY INC	HISTORIC PRESERVATION	34.15357	-85.67829	0.0	0.0
CHICKASAW HISTORIC PRESERVATION SOCIETY	CHICKASAW HISTORIC PRESERVATION SOCIETY	HISTORIC PRESERVATION	30.7655	-88.08103	0.0	0.0
CHILDREN'S MUSEUM OF ALABAMA	CHILDRENS MUSEUM OF ALABAMA	CHILDREN'S MUSEUM	32.38083	-86.31088	50286.0	50286.0
CHILDREN'S MUSEUM OF THE SHOALS	CHILDRENS MUSEUM OF THE SHOALS INC	CHILDREN'S MUSEUM	34.84045	-87.64879	88560.0	88560.0
CHOCTAW COUNTY GENEALOGICAL SOCIETY	CHOCTAW COUNTY GENEALOGICAL SOCIETY	HISTORIC PRESERVATION	32.03716	-88.17437	0.0	0.0
CHOCTAW COUNTY HISTORICAL MUSEUM	CHOCTAW COUNTY HISTORICAL MUSEUM INC	ART MUSEUM	32.11194	-88.23785	0.0	0.0
CHOCTAW COUNTY HISTORICAL SOCIETY	CHOCTAW COUNTY HISTORICAL SOCIETY	HISTORIC PRESERVATION	32.0877	-88.21657	0.0	0.0
CHOM INCORPORATED OF TUSCALOOSA COUNTY	CHOM INCORPORATED OF TUSCALOOSA COUNTY	CHILDREN'S MUSEUM	33.21045	-87.56584	611829.0	600563.0
CHRISTENBERRY PLANETARIUM	SAMFORD UNIVERSITY	SCIENCE & TECHNOLOGY MUSEUM OR PLANETARIUM	33.46435	-86.7954	343788271.0	208251061.0
CLARKE CO HISTORICAL MUSEUM	CLARKE COUNTY HISTORICAL SOCIETY	HISTORIC PRESERVATION	31.68673	-87.78712	0.0	0.0
CLARKE COUNTY HISTORICAL SOCIETY & MUSEUM	CLARKE COUNTY HISTORICAL SOCIETY	HISTORIC PRESERVATION	31.68673	-87.78712	128509.0	124305.0
CLAY COUNTY HISTORICAL SOCIETY	CLAY COUNTY HISTORICAL SOCIETY INCORPORATED	HISTORIC PRESERVATION	33.24363	-85.84636	0.0	0.0
CLAY LEGACY ASSOCIATION	CLAY HISTORICAL SOCIETY INC	HISTORIC PRESERVATION	33.69993	-86.60455	0.0	0.0
CLEMENTS HOUSE	FRIENDS OF HISTORIC NORTHPORT INC	HISTORIC PRESERVATION	33.23036	-87.58354	0.0	0.0
COAST GUARD HISTORICAL SOCIETY	COAST GUARD HISTORICAL SOCIETY	HISTORIC PRESERVATION	34.70098	-87.52815	0.0	0.0
COLEMAN CENTER FOR THE ARTS	COLEMAN CENTER FOR THE ARTS	ART MUSEUM	32.48383	-88.29437	199297.0	199297.0
COLLINSVILLE HISTORICAL ASSOCIATION	COLLINSVILLE HISTORICAL ASSOCIATION INC	HISTORIC PRESERVATION	34.26189	-85.86513	0.0	0.0
COLUMBIA HISTORIAL SOCIETY	COLUMBIA HISTORIAL SOCIETY	HISTORIC PRESERVATION	31.27906	-85.12623	0.0	0.0
CONDE CHARLOTTE MUSEUM HOUSE	THE NATIONAL SOCIETY OF THE COLONIAL DAMES OF AMERICA IN TH	HISTORIC PRESERVATION	33.24112	-87.5261	318188.0	318188.0
COOSA COUNTY HISTORICAL SOCIETY	THE COOSA COUNTY HISTORICAL SOCIETY	HISTORIC PRESERVATION	32.86725	-86.21548	0.0	0.0
COOSA HISTORICAL PRESERVATION AUTHORITY	COOSA HISTORICAL PRESERVATION AUTHORITY INC	HISTORIC PRESERVATION	32.86725	-86.21548	0.0	0.0
COST OF FREEDOM VETERANS MUSEUM	COST OF FREEDOM VETERANS MUSEUM	GENERAL MUSEUM	34.316	-86.49575	0.0	0.0
COURTLAND HERITAGE MUSEUM	COURTLAND HERITAGE MUSEUM INC	HISTORY MUSEUM	34.66655	-87.31032	0.0	0.0
COVINGTON HISTORICAL SOCIETY	THE COVINGTON HISTORICAL SOCIETY INC	HISTORIC PRESERVATION	31.30243	-86.48793	0.0	0.0
CRENSHAW COUNTY HISTORICAL SOCIETY	CRENSHAW COUNTY HISTORICAL SOCIETY INC	HISTORIC PRESERVATION	31.74659	-86.28191	0.0	0.0
CULLMAN COUNTY HISTORICAL SOCIETY	CULLMAN COUNTY HISTORICAL SOCIETYINC	HISTORIC PRESERVATION	34.18014	-86.85111	0.0	0.0
DAPHNE MUSEUM	FRIENDS OF THE OLD METHODIST CHURCH MUSEUM OF DAPHNE INC	GENERAL MUSEUM	30.62109	-87.87618	0.0	0.0
DEPOT MUSEUM	FORT PAYNE DEPOT MUSEUM INC	GENERAL MUSEUM	34.43922	-85.71449	41388.0	41388.0
DIVINE DESTINYS DANCE	DANCE LEVELS	HISTORIC PRESERVATION	33.72529	-86.65841	0.0	0.0
DONNELL HOUSE BOARD	DONNELL HOUSE BOARD INC	HISTORIC PRESERVATION	34.80508	-86.98225	0.0	0.0
DOTHAN AREA BOTANICAL GARDENS	DOTHAN AREA BOTANICAL GARDENS INC	ARBORETUM, BOTANICAL GARDEN, OR NATURE CENTER	31.28818	-85.34601	254637.0	189558.0
EAST ALABAMA ARTISTS	EAST ALABAMA ARTISTS INCORPORATED	ART MUSEUM	33.65842	-85.82646	0.0	0.0
EAST MONTGOMERY COUNTY HISTORICAL SOCIETY	EAST MONTGOMERY COUNTY HISTORICAL SOCIETY INC	HISTORIC PRESERVATION	32.35664	-86.09503	0.0	0.0
EASTERN SHORE ART ASSOCIATION	EASTERN SHORE ART ASSN INC	ART MUSEUM	30.52659	-87.90355	487641.0	487641.0
EDMUND LAW ROGERS SMITH-HARRISON	EDMUND LAW ROGERS SMITH-HARRISON	HISTORY MUSEUM	33.17925	-86.60898	0.0	0.0
EICHOLD GALLERY	SPRING HILL COLLEGE	ART MUSEUM	30.68574	-88.14806	35426734.0	34774309.0
EIGHTH AIR FORCE HISTORICAL SOCIETY	THE ALABAMA CHAPTER OF THE EIGHTH AIR FORCE HISTORICAL SOCI	HISTORIC PRESERVATION	33.42958	-86.82467	0.0	0.0
ELMORE COUNTY HISTORICAL SOCIETY	ELMORE COUNTY HISTORICAL SOCIETY INC	HISTORIC PRESERVATION	32.53707	-86.20556	0.0	0.0
ENDOWMENT FOR MCWANE SCIENCE CENTER	ENDOWMENT FOR MCWANE SCIENCE CENTER	SCIENCE & TECHNOLOGY MUSEUM OR PLANETARIUM	33.51539	-86.80816	465927.0	465927.0
ENDOWMENT FOR THE PRESERVATION 0F ELEVATING HISTORY	ENDOWMENT FOR THE PRESERVATION 0F ELEVATING HISTORY INC	HISTORIC PRESERVATION	30.67475	-88.09607	0.0	0.0
EPES HISTORICAL ASSOCIATION	EPES HISTORICAL ASSOCIATION	HISTORIC PRESERVATION	32.67166	-88.16305	0.0	0.0
ETOWAH HISTORICAL SOCIETY	ETOWAH HISTORICAL SOCIETY	HISTORIC PRESERVATION	34.02262	-86.04895	0.0	0.0
EUFAULA HERITAGE ASSOCIATION	EUFAULA HERITAGE ASSOCIATION INC	HISTORIC PRESERVATION	31.89681	-85.14599	266618.0	180582.0
EUTAW AREA CHAMBER OF COMMERCE TRUST	EUTAW AREA CHAMBER OF COMMERCE TRUST INC	HISTORIC PRESERVATION	32.88911	-87.90988	3350.0	3350.0
EXPLORE CENTER	EXPLORE CENTER INC	SCIENCE & TECHNOLOGY MUSEUM OR PLANETARIUM	30.6708	-88.10646	2256563.0	2185174.0
EXPLOREUM MUSEUM OF DISCOVERY	EXPLORE CENTER INC	SCIENCE & TECHNOLOGY MUSEUM OR PLANETARIUM	30.69034	-88.03979	2256563.0	2185174.0
FAIRHOPE MUSEUM OF HISTORY	FRIENDS OF THE FAIRHOPE MUSEUM OF HISTORY INC	HISTORY MUSEUM	30.52517	-87.9029	7074.0	5738.0
FAYETTE COUNTY HISTORICAL SOCIETY	FAYETTE COUNTY HISTORICAL SOCIETY INC	HISTORIC PRESERVATION	33.68683	-87.82637	0.0	0.0
FENDALL HALL	FRIENDS OF FENDALL HALL INC	HISTORIC PRESERVATION	31.8911	-85.1683	0.0	0.0
FLOMATON AREA RAILROAD MUSEUM	FLOMATON AREA RAIL ROAD MUSEUM	GENERAL MUSEUM	31.026	-87.24941	0.0	0.0
FORT MIMS RECONSTRUCTION ASSOCIATION	FORT MIMS RESTORATION ASSOCIATION INC	HISTORIC PRESERVATION	31.4705	-87.42077	0.0	0.0
FORT MORGAN FOUNDATION	FORT MORGAN FOUNDATION INC	HISTORIC PRESERVATION	30.69305	-88.04213	0.0	0.0
FORT PAYNE DEPOT MUSEUM	FORT PAYNE DEPOT MUSEUM INC	GENERAL MUSEUM	34.43922	-85.71449	41388.0	41388.0
FORTSON MUSEUM & ARCHIVES	FORTSON MUSEUM & ARCHIVES	HISTORY MUSEUM	33.67461	-86.40964	0.0	0.0
GADSDEN MUSEUM OF FINE ARTS	GADSDEN MUSEMUM OF FINE ARTS INC	ART MUSEUM	34.01391	-86.00513	0.0	0.0
GARDENDALE HISTORICAL SOCIETY	GARDENDALE HISTORICAL SOCIETY INC	HISTORIC PRESERVATION	33.69468	-86.83788	0.0	0.0
GEORGE WASHINGTON CARVER INTERPRETIVE MUSEUM	GEORGE WASHINGTON CARVER INTERPRETIVE MUSEUM	GENERAL MUSEUM	31.22673	-85.39257	53324.0	53324.0
GREENE COUNTY HISTORICAL SOCIETY	GREENE COUNTY HISTORICAL SOCIETY	HISTORIC PRESERVATION	32.84129	-87.89041	11385.0	11385.0
GULF COAST EXPLOREUM SCIENCE CENTER	GULF COAST EXPLOREUM SCIENCE CENTER	SCIENCE & TECHNOLOGY MUSEUM OR PLANETARIUM	30.69034	-88.03979	2256563.0	2185174.0
GULF COAST INTERNATIONAL MUSEUM	GULF COAST INTERNATIONAL MUSEUM INC	HISTORY MUSEUM	30.69651	-88.04401	0.0	0.0
GUNTERSVILL HISTORICAL SOCIETY	GUNTERSVILL HISTORICAL SOCIETY INC	HISTORIC PRESERVATION	34.36776	-86.37909	20867.0	13067.0
GUNTERSVILLE MUSEUM & CULTURAL CENTER ASSOCIATION	GUNTERSVILLE MUSEUM & CULTURAL CENTER ASSOCIATION	GENERAL MUSEUM	34.34911	-86.3036	38330.0	38330.0
GUNTERSVILLE MUSEUM AND CULTURAL CENTER	GUNTERSVILLE MUSEUM & CULTURAL CENTER ASSOCIATION	GENERAL MUSEUM	34.34911	-86.3036	38330.0	38330.0
GURLEY HISTORICAL ASSOCIATION	GURLEY HISTORICAL ASSOCIATION INC	HISTORIC PRESERVATION	34.7027	-86.43197	0.0	0.0
HANCEVILLE HISTORICAL PRESERVATION GROUP	HANCEVILLE HISTORICAL PRESERVATION GROUP	HISTORIC PRESERVATION	34.11784	-86.76098	0.0	0.0
HANK WILLIAMS MUSEUM AND FESTIVAL	HANK WILLIAMS MUSEUM AND FESTIVAL INC	HISTORY MUSEUM	31.65737	-86.74566	71987.0	15228.0
HANK WILLIAMS SENIOR BOYHOOD HOME AND MUSEUM	HANK WILLIAMS MUSEUM AND FESTIVAL INC	HISTORY MUSEUM	31.65737	-86.74566	71987.0	15228.0
HARRIS BARRETT SCHOOL	HARRIS BARRETT SCHOOL INC	HISTORIC PRESERVATION	32.47951	-85.76358	0.0	0.0
HARTSELLE HISTORICAL SOCIETY	HARTSELLE HISTORICAL SOCIETY INC	HISTORIC PRESERVATION	34.44638	-86.93179	0.0	0.0
HEART GALLERY OF ALABAMA	HEART GALLERY OF ALABAMA INC	ART MUSEUM	33.51713	-86.77651	231386.0	223739.0
HEART OF DIXIE RAILROAD MUSEUM	HEART OF DIXIE RAILROAD MUSEUM INC	HISTORY MUSEUM	33.1092	-86.7499	1050693.0	1024873.0
HELEN KELLER BIRTHPLACE	HELEN KELLER BIRTHPLACE FOUNDATION INC	GENERAL MUSEUM	34.73802	-87.70631	261626.0	199930.0
HENRY COUNTY VETERANS MEMORIAL PARK	HENRY COUNTY VETERANS MEMORIAL PARK	HISTORIC PRESERVATION	31.53708	-85.12046	9804.0	9804.0
HISTORIC BETHEL BAPTIST CHURCH	HISTORIC BETHEL BAPTIST CHURCH COMMUNITY RESTORATION FUND	HISTORIC PRESERVATION	33.5513	-86.80186	528066.0	528066.0
HISTORIC ESTATES LANDMARKS AND PROPERTIES	HISTORIC ESTATES LANDMARKS AND PROPERTIES INC	GENERAL MUSEUM	32.43436	-87.02444	0.0	0.0
HISTORIC HALE COUNTY PRESERVATION SOCIETY	HISTORIC HALE COUNTY PRESERVATION SOCIETY INC	HISTORIC PRESERVATION	32.70357	-87.59443	0.0	0.0
HISTORIC MOBILE PRESERVATION SOCIETY	HISTORIC MOBILE PRESERVATION SOCIETY INC	HISTORIC PRESERVATION	30.68068	-88.06003	293253.0	284056.0
HISTORIC NORTHPORT	FRIENDS OF HISTORIC NORTHPORT INC	HISTORIC PRESERVATION	33.22819	-87.57759	0.0	0.0
HISTORIC RESTORATION SOCIETY	HISTORIC RESTORATION SOCIETY INC	HISTORIC PRESERVATION	30.69597	-88.10617	0.0	0.0
HISTORIC SHELBY ASSOCIATION	HISTORIC SHELBY ASSOCIATION INC	HISTORY MUSEUM	33.08552	-86.54245	0.0	0.0
HISTORY MUSEUM OF MOBILE	MOBILE MEDICAL MUSEUM INC	HISTORY MUSEUM	30.69234	-88.07704	20453.0	20453.0
HOLLY POND HISTOICAL SOCIETY	HOLLY POND HISTOICAL SOCIETY	HISTORIC PRESERVATION	34.18191	-86.62915	0.0	0.0
HOLT STREET BAPTIST CHURCH HISTORICAL SOCIETY	HOLT STREET BAPTIST CHURCH HISTORICAL SOCIETY	HISTORIC PRESERVATION	32.35256	-86.30851	0.0	0.0
HOMER B WILSON JR VINTAGE MUSEUM	HOMER B WILSON JR VINTAGE MUSEUM	SCIENCE & TECHNOLOGY MUSEUM OR PLANETARIUM	34.40105	-86.2544	0.0	0.0
HOOVER HISTORICAL SOCIETY	HOOVER HISTORICAL SOCIETY	HISTORIC PRESERVATION	33.40819	-86.85433	0.0	0.0
HOUSTON HISTORICAL SOCIETY	HOUSTON HISTORICAL SOCIETY	HISTORIC PRESERVATION	34.15651	-87.27872	0.0	0.0
HUNTSVILLE - MADISON COUNTY ATHLETIC HALL OF FAME	HUNTSVILLE-MADISON COUNTY ATHLETIC HALL OF FAME INC	HISTORIC PRESERVATION	34.72753	-86.59342	41211.0	5906.0
HUNTSVILLE MUSEUM OF ART	HUNTSVILLE MUSEUM OF ART	GENERAL MUSEUM	34.72905	-86.58787	2024641.0	2015943.0
HUNTSVILLE-MADISON COUNTY HISTORICAL SOCIETY	HUNTSVILLE-MADISON COUNTY HISTORICAL SOCIETY INC	HISTORIC PRESERVATION	34.72753	-86.59342	0.0	0.0
IMAGINATION PLACE	GADSDEN CULTURAL ARTS FOUNDATION INC	HISTORIC PRESERVATION	34.01391	-86.00513	2714683.0	1745386.0
INTERNATIONAL MOTORSPORTS HALL OF FAME & MUSEUM	INTERNATIONAL MOTORSPORTS HALL OF FAME FOUNDATION	GENERAL MUSEUM	33.43764	-86.10313	0.0	0.0
IRONDALE AL HISTORICAL SOCIETY	IRONDALE AL HISTORICAL SOCIETY	HISTORIC PRESERVATION	33.53794	-86.70836	0.0	0.0
ISABEL ANDERSON COMER MUSEUM & ARTS CENTER	ISABEL ANDERSON COMER MUSEUM & ARTS CENTER	ART MUSEUM	33.16453	-86.25086	40019.0	40019.0
JEMISON-VAN DE GRAAFF MANSION FOUNDATION	JEMISON-VAN DE GRAAFF MANSION FOUNDATION	HISTORIC PRESERVATION	33.20224	-87.56509	146509.0	146509.0
JESSE OWENS MUSEUM AND PARK	FRIENDS OF THE JESSE OWENS MUSEUM AND PARK	ARBORETUM, BOTANICAL GARDEN, OR NATURE CENTER	34.53612	-87.2792	0.0	0.0
JOHN W INZER MUSEUM	JOHN W INZER MUSEUM INC	GENERAL MUSEUM	33.81868	-86.23727	0.0	0.0
KENTUCK ART CENTER & MUSEUM	THE KENTUCK MUSEUM ASSOCIATION INC	ART MUSEUM	33.21904	-87.57842	483757.0	445388.0
LAGRANGE LIVING HISTORICAL ASSOCIATION	LAGRANGE LIVING HISTORICAL ASSOCIATION	HISTORIC PRESERVATION	34.66894	-87.53617	19057.0	19057.0
LAMAR COUNTY GENEALOGICAL AND HISTORICAL SOCIETY	LAMAR COUNTY GENEALOGICAL AND HISTORICAL SOCIETY	HISTORIC PRESERVATION	33.75431	-88.10535	0.0	0.0
LANDMARKS FOUNDATION OF MONTGOMERY	LANDMARKS FOUNDATION OF MONTGOMERY	HISTORIC PRESERVATION	32.38218	-86.30519	849416.0	786968.0
LANDMARKS OF DEKALB COUNTY	LANDMARKS OF DEKALB COUNTY INC	HISTORIC PRESERVATION	34.47746	-85.76825	0.0	0.0
LANIER HIGH SCHOOL HISTORIC SOCIETY	LANIER HIGH SCHOOL HISTORIC SOCIETY INC	HISTORIC PRESERVATION	32.86426	-85.21922	0.0	0.0
LAWRENCE COUNTY HISTORICAL COMMISSION	LAWRENCE COUNTY HISTORICAL COMMISSION	HISTORIC PRESERVATION	34.48047	-87.29119	0.0	0.0
LEDS SCENIC BYWAY MANAGEMENT TEAM	LEDS SCENIC BYWAY MANAGEMENT TEAM INC	HISTORIC PRESERVATION	33.53762	-86.57852	0.0	0.0
LEE COUNTY HISTORICAL SOCIETY	LEE COUNTY HISTORICAL SOCIETY	HISTORIC PRESERVATION	32.60443	-85.59934	61919.0	50467.0
LEEDS HISTORICAL SOCIETY	LEEDS HISTORICAL SOCIETY INC	HISTORIC PRESERVATION	33.46095	-86.58808	0.0	0.0
LIMESTONE COUNTY ALABAMA ARCHIVES	FRIENDS OF THE LIMESTONE COUNTY ALABAMA ARCHIVES	HISTORIC PRESERVATION	34.80241	-86.97004	3643.0	3643.0
LIMESTONE COUNTY HISTORICAL SOCIETY	LIMESTONE COUNTY HISTORICAL SOCIETY	HISTORIC PRESERVATION	34.80508	-86.98225	0.0	0.0
LINDEN HISTORICAL SOCIETY	CITY OF LINDEN HISTORICAL SOCIETY	HISTORIC PRESERVATION	32.21881	-87.73882	0.0	0.0
MADISON COUNTY MILITARY HERITAGE	MADISON COUNTY MILITARY HERITAGE COMMISSION	GENERAL MUSEUM	34.7305	-86.58595	0.0	0.0
MADISON STATION HISTORICAL PRESERVATION SOCIETY	MADISON STATION HISTORICAL PRESERVATION SOCIETY INC	HISTORIC PRESERVATION	34.69407	-86.74919	0.0	0.0
MARENGO COUNTY HISTORICAL SOCIETY	MARENGO COUNTY HISTORICAL SOCIETY INC	HISTORIC PRESERVATION	32.49096	-87.84868	82948.0	82948.0
MARENGO COUNTY HISTORICAL SOCIETY	ELIZABETH LAIRD TR UW 101993 FBO MARENGO COUNTY HISTORICAL	HISTORIC PRESERVATION	32.49096	-87.84868	570352.0	94581.0
MARENGO COUNTY HISTORY-ARCHIVES	MARENGO COUNTY HISTORY AND ARCHIVES MUSEUM FOUNDATION INC	HISTORIC PRESERVATION	32.51644	-87.83766	0.0	0.0
MARENGO COUNTY SPORTS HALL OF FAME	MARENGO COUNTY SPORTS HALL OF FAME INC	GENERAL MUSEUM	32.49096	-87.84868	0.0	0.0
MARIAN ACREEï¿½TUCKER GALLERY	JUDSON COLLEGE	ART MUSEUM	32.63066	-87.31662	9087425.0	8587867.0
MARIETTA L JOHNSON MUSEUM	MARIETTA L JOHNSON MUSEUM	HISTORY MUSEUM	30.52388	-87.90081	0.0	0.0
MARION COUNTY HISTORICAL SOCIETY	MARION COUNTY HISTORICAL SOCIETY	HISTORIC PRESERVATION	34.16018	-87.99838	5970.0	5970.0
MARSHALL COUNTY SPORTS HALL OF FAME	MARSHALL COUNTY SPORTS HALL OF FAME INC	HISTORY MUSEUM	34.20111	-86.17222	14523.0	14523.0
MCCOY CENTER FOR COMMUNITY SERVICE	MCCOY CENTER FOR COMMUNITY SERVICE INC	HISTORIC PRESERVATION	33.5115	-86.84821	96402.0	95811.0
MCWANE SCIENCE CENTER	MCWANE SCIENCE CENTER	SCIENCE & TECHNOLOGY MUSEUM OR PLANETARIUM	33.51539	-86.80816	10522096.0	8814675.0
MENTONE AREA PRESERVATION ASSOCIATION	MENTONE AREA PRESERVATION ASSOCIATION	HISTORIC PRESERVATION	34.53259	-85.56267	0.0	0.0
MOBILE HISTORIC DEVELOPMENT COMMISSION	MOBILE HISTORIC DEVELOPMENT COMMISSION	HISTORIC PRESERVATION	30.6708	-88.10646	554949.0	371589.0
MOBILE MEDICAL MUSEUM	MOBILE MEDICAL MUSEUM INC	HISTORY MUSEUM	30.69234	-88.07704	20453.0	20453.0
MOBILE MUSEUM OF ART	THE MOBILE MUSEUM OF ART INC	ART MUSEUM	30.70401	-88.15462	3749971.0	3668329.0
MOBILE ROCK & GEM SOCIETY	MOBILE ROCK & GEM SOCIETY	NATURAL HISTORY MUSEUM	30.71661	-88.14435	0.0	0.0
MOBILE SPORTS HALL OF FAME	MOBILE SPORTS HALL OF FAME INC	GENERAL MUSEUM	30.66666	-88.18115	221412.0	221412.0
MOBILE ZOO	MOBILE ZOO	ZOO, AQUARIUM, OR WILDLIFE CONSERVATION	30.82633	-88.39683	54423.0	53441.0
MONROE COUNTY HERITAGE MUSEUM	MONROE COUNTY HERITAGE MUSEUM INC	HISTORY MUSEUM	31.51158	-87.32765	373421.0	311572.0
MONROE COUNTY HERITAGE MUSEUM ENDOWMENT	MONROE COUNTY HERITAGE MUSEUM ENDOWMENT INC	GENERAL MUSEUM	31.51158	-87.32765	0.0	0.0
MONTGOMERY AREA ZOOLOGICAL SOCIETY	MONTGOMERY AREA ZOOLOGICAL SOCIETY INC	ZOO, AQUARIUM, OR WILDLIFE CONSERVATION	32.42108	-86.27306	516603.0	502005.0
MONTGOMERY COUNTY HISTORICAL SOCIETY	MONTGOMERY COUNTY HISTORICAL SOCIETY	HISTORIC PRESERVATION	32.37047	-86.30888	59539.0	59539.0
MONTGOMERY MUSEUM OF FINE ARTS	MONTGOMERY MUSEUM OF FINE ARTS ASSOCIATION	ART MUSEUM	32.3526	-86.2087	2796070.0	2759203.0
MONTGOMERY MUSEUM OF FINE ARTS ASSOCIATION	MONTGOMERY MUSEUM OF FINE ARTS ASSOCIATION	ART MUSEUM	32.3526	-86.2087	2796070.0	2759203.0
MONTGOMERY WORLD HERITAGE MUSEUM	MONTGOMERY WORLD HERITAGE MUSEUM INC	GENERAL MUSEUM	32.36612	-86.31063	0.0	0.0
MONTROSE HISTORIC PRESERVATION SOCIETY	MONTROSE HISTORIC PRESERVATION SOCIETY	HISTORIC PRESERVATION	30.56595	-87.90195	600.0	600.0
MORGAN COUNTY GENEALOGICAL SOCIETY	MORGAN COUNTY GENEALOGICAL SOCIETY INC	HISTORIC PRESERVATION	34.61182	-86.98597	0.0	0.0
MUSANN CORP	MUSANN CORP	NATURAL HISTORY MUSEUM	33.65842	-85.82646	112334.0	74908.0
MUSEUM OF EAST ALABAMA	MUSEUM OF EAST ALABAMA	GENERAL MUSEUM	32.64708	-85.38025	44650.0	44650.0
MUSEUM OF MOBILE	MUSEUM OF MOBILE INC	HISTORIC PRESERVATION	30.6959	-88.04303	46907.0	46907.0
MUSEUM OF THE CITY OF MOBILE	FRIENDS OF THE MUSEUM OF THE CITY OF MOBILE	GENERAL MUSEUM	30.69015	-88.04008	0.0	0.0
MUSEUMS OAKLEIGH MUSEUM	HISTORIC MOBILE PRESERVATION SOCIETY INC	HISTORIC PRESERVATION	30.68068	-88.06003	293253.0	284056.0
MUSTANG MUSEUM OF AMERICA	MUSTANG MUSEUM OF AMERICA	ART MUSEUM	33.57656	-86.49679	0.0	0.0
NATCHEZ TRACE GENALOGICAL SOCIETY	NATCHEZ TRACE GENALOGICAL SOCIETY INC	HISTORIC PRESERVATION	34.80175	-87.6751	0.0	0.0
NATIONAL MARITIME MUSEUM	NATIONAL MARITIME MUSEUM OF THE GULF OF MEXICO	GENERAL MUSEUM	30.69698	-88.04092	8621580.0	1120580.0
NATIONAL MARITIME MUSEUM OF THE GULF OF MEXICO	NATIONAL MARITIME MUSEUM OF THE GULF OF MEXICO	GENERAL MUSEUM	30.6959	-88.04303	8621580.0	1120580.0
NATIONAL MARITIME MUSUEM OF THE GULF OF MEXICO HOLDINGS	NATIONAL MARITIME MUSUEM OF THE GULF OF MEXICO HOLDINGS	GENERAL MUSEUM	30.6959	-88.04303	55000.0	55000.0
NATIONAL VOTING RIGHTS MUSEUM AND INSTITUTE	NATIONAL VOTING RIGHTS MUSEUM AND INSTITUTE INC	GENERAL MUSEUM	32.40298	-87.01724	174280.0	174280.0
NAUVOO HISTORICAL SOCIETY	NAUVOO HISTORICAL SOCIETY INC	HISTORIC PRESERVATION	33.97136	-87.34601	0.0	0.0
NORTH ALABAMA RAILROAD MUSEUM	NORTH ALABAMA RAILROAD MUSEUM INC	HISTORY MUSEUM	34.78365	-86.5462	87805.0	76396.0
NORTH ALABAMA SCIENCE CENTER	NORTH ALABAMA SCIENCE CENTER INC	SCIENCE & TECHNOLOGY MUSEUM OR PLANETARIUM	34.75149	-86.69326	1430797.0	1406452.0
NORTH ALABAMA VIETNAM PILOTS ASSOCIATION	NORTH ALABAMA VIETNAM PILOTS ASSOCIATION	HISTORIC PRESERVATION	34.70022	-86.64048	0.0	0.0
NORTHPORT HERITAGE MUSEUM	FRIENDS OF HISTORIC NORTHPORT INC	HISTORIC PRESERVATION	33.23036	-87.58354	0.0	0.0
OLD METHODIST CHURCH MUSEUM OF DAPHNE	FRIENDS OF THE OLD METHODIST CHURCH MUSEUM OF DAPHNE INC	GENERAL MUSEUM	30.6015	-87.90917	0.0	0.0
OLD MOBILE	FRIENDS OF OLD MOBILE INC	HISTORIC PRESERVATION	30.66739	-88.12781	0.0	0.0
OLD TOWNE PRESERVATION ASSOCIATION	OLD TOWN HISTORIC PRESERVATION DISTRICT ASSOCIATION	HISTORIC PRESERVATION	34.73564	-86.58271	0.0	0.0
OPELIKA HISTORIC PRESERVATION SOCIETY	OPELIKA HISTORIC PRESERVATION SOCIETY	HISTORIC PRESERVATION	32.65391	-85.38525	0.0	0.0
PARADISE GARDENS PARK & MUSEUM	PARADISE GARDENS PARK & MUSEUM INC	ARBORETUM, BOTANICAL GARDEN, OR NATURE CENTER	33.29111	-86.91321	0.0	0.0
PEA RIVER HISTORICAL & GENEALOGICAL SOCIETY	PEA RIVER HISTORICAL & GENEALOGICAL SOCIETY	HISTORIC PRESERVATION	31.31533	-85.85463	0.0	0.0
PEINHARDT LIVING HISTORY FARM FOUND ATION	PEINHARDT LIVING HISTORY FARM FOUND ATION INC	HISTORIC PRESERVATION	34.17122	-86.86306	46229.0	46229.0
PERRY COUNTY HISTORICAL AND PRESERVATION SOCIETY	PERRY COUNTY HISTORICAL AND PRESERVATION SOCIETY	HISTORIC PRESERVATION	32.63446	-87.31793	0.0	0.0
PETERMAN HISTORICAL SOCIETY	PETERMAN HISTORICAL SOCIETY	HISTORIC PRESERVATION	31.58501	-87.26272	0.0	0.0
PICKENS COUNTY COURTHOUSE	PICKENS COUNTY COURTHOUSE PRESERVATION FOUNDATION INC	HISTORIC PRESERVATION	33.25027	-88.1561	0.0	0.0
PICKENS COUNTY GENEALOGICAL SOCIETY	PICKENS COUNTY GENEALOGICAL SOCIETY	HISTORIC PRESERVATION	33.32262	-87.89038	0.0	0.0
PIKE COUNTY MUSEUM	PIKE COUNTY MUSEUM FOUNDATION	GENERAL MUSEUM	31.82285	-85.94671	111804.0	7815.0
PINTLALA HISTORICAL ASSOCIATION	PINTLALA HISTORICAL ASSOCIATION	HISTORIC PRESERVATION	32.15148	-86.36178	0.0	0.0
PIONEER MUSEUM OF ALABAMA	PIONEER MUSEUM OF ALABAMA ASSN	HISTORY MUSEUM	31.85412	-85.99719	103113.0	98710.0
RANDOLPH COUNTY HISTORICAL SOCIETY	RANDOLPH COUNTY HISTORICAL SOCIETY	HISTORIC PRESERVATION	40.16907	-84.98254	0.0	0.0
RED BAY MUSEUM	RED BAY MUSEUM	SCIENCE & TECHNOLOGY MUSEUM OR PLANETARIUM	34.44257	-88.14745	0.0	0.0
RICHARDS-DAR HOUSE MUSEUM	THE RICHARDS-DAR HOUSE MUSEUM	HISTORIC PRESERVATION	30.68979	-88.05529	53254.0	45193.0
RUSSELL COUNTY HISTORICAL COMMISSION	RUSSELL COUNTY HISTORICAL COMMISSION	HISTORIC PRESERVATION	32.46851	-85.0009	118905.0	116075.0
SAFE HOUSE MUSEUM	SAFE HOUSE MUSEUM	HISTORIC PRESERVATION	32.69759	-87.60943	0.0	0.0
SAMFORD ART GALLERY	SAMFORD UNIVERSITY	ART MUSEUM	33.46435	-86.7954	343788271.0	208251061.0
SAVING OUR FLYING HERITAGE THROUGH A FLYING MUSEUM	SAVING OUR FLYING HERITAGE THROUGH A FLYING MUSEUM	HISTORY MUSEUM	34.7146	-86.74156	0.0	0.0
SCOTT AND ZELDA FITZGERALD MUSEUM	SCOTT AND ZELDA FITZGERALD MUSEUM ASSOCIATION INC	GENERAL MUSEUM	32.37375	-86.31101	0.0	0.0
SCOTTSBORO JACKSON HERITAGE CENTER ASSOCIATION	SCOTTSBORO JACKSON HERITAGE CENTER ASSOCIATION	HISTORY MUSEUM	34.67179	-86.03733	86407.0	86407.0
SEAY TWIN ART GALLERY	HUNTINGDON COLLEGE	ART MUSEUM	32.35205	-86.28466	36632804.0	29957155.0
SEEMS SCHOOL	ALUMNI & FRIENDS OF SEMMES SCHOOL INC	HISTORY MUSEUM	30.76512	-88.26265	0.0	0.0
SELMA DALLAS COUNTY HISTORIC PRESERVATION SOCIETY	SELMA DALLAS COUNTY HISTORIC PRESERVATION SOCIETY	HISTORIC PRESERVATION	32.40623	-87.02243	86280.0	34600.0
SELMA-DALLAS COUNTY MUSEUM OF HISTORY AND ARCHIVES	SELMA-DALLAS COUNTY MUSEUM OF HISTORY AND ARCHIVES INC	HISTORY MUSEUM	32.40885	-87.01422	0.0	0.0
SHELBY COUNTY HISTORICAL SOCIETY	THE SHELBY COUNTY HISTORICAL SOCIETY	HISTORIC PRESERVATION	33.20482	-86.60898	72416.0	72416.0
SKYLINE FARM HERITAGE ASSOCIATION	SKYLINE FARM HERITAGE ASSOCIATION INC	HISTORIC PRESERVATION	34.67005	-86.22614	0.0	0.0
SLOSS FURNACES	SLOSS FURNACES FOUNDATION INC	HISTORY MUSEUM	33.52109	-86.78855	375106.0	375106.0
SLOSS FURNACES NATIONAL HISTORIC LANDMARK	SLOSS FURNACES FOUNDATION INC	HISTORIC PRESERVATION	33.52109	-86.78855	375106.0	375106.0
SOUTH BALDWIN MUSEUM	SOUTH BALDWIN MUSEUM FOUNDATON INC	GENERAL MUSEUM	30.40633	-87.68332	21283.0	21283.0
SOUTHERN MUSEUM OF FLIGHT	SOUTHERN MUSEUM OF FLIGHT	SCIENCE & TECHNOLOGY MUSEUM OR PLANETARIUM	33.56294	-86.73852	254016.0	233359.0
SPRUCE PINE HISTORICAL SOCIETY	SPRUCE PINE HISTORICAL SOCIETY	HISTORIC PRESERVATION	34.41417	-87.78503	31896.0	31896.0
ST CLAIR HISTORICAL SOCIETY	ST CLAIR HISTORICAL SOCIETY INC	HISTORIC PRESERVATION	33.68029	-86.39394	0.0	0.0
ST FLORIAN HISTORICAL PRESERVATION SOCIETY	ST FLORIAN HISTORICAL PRESERVATION SOCIETY INC	HISTORIC PRESERVATION	34.87336	-87.62379	450.0	450.0
STATE OF ALABAMA ENGINEERING HALL OF FAME	THE STATE OF ALABAMA ENGINEERING HALL OF FAME	SCIENCE & TECHNOLOGY MUSEUM OR PLANETARIUM	33.20964	-87.54712	131481.0	131481.0
STEPHEN JONAH KING COMMUNITY PRESERVATION GROUP	STEPHEN JONAH KING COMMUNITY PRESERVATION GROUP	HISTORIC PRESERVATION	34.18203	-86.85799	0.0	0.0
STILLMAN ART GALLERY	STILLMAN COLLEGE	ART MUSEUM	33.19622	-87.56483	24958925.0	24958925.0
STURDIVANT HALL	STURDIVANT MUSEUM ASSOCIATION OF SELMA INC	HISTORIC PRESERVATION	32.40623	-87.02243	789462.0	291156.0
STURDIVANT HALL MUSEUM	STURDIVANT MUSEUM ASSOCIATION OF SELMA INC	HISTORY MUSEUM	32.41279	-87.02827	789462.0	291156.0
SUMTER COUNTY HISTORICAL & PRESERVATION SOCIETY	SUMTER COUNTY HISTORICAL AND PRESERVATIION SOCIETY INC	HISTORIC PRESERVATION	32.56319	-88.13818	21026.0	21026.0
TALLAPOOSSEE HISTORICAL SOCIETY	TALLAPOOSSEE HISTORICAL SOCIETY	HISTORIC PRESERVATION	32.81459	-85.73899	0.0	0.0
TALLEDEGA HISTORICAL ASSOCIATION	TALLEDEGA HISTORICAL ASSOCIATION INC	HISTORIC PRESERVATION	33.43764	-86.10313	0.0	0.0
THREE NOTCH MUSEUM	THE COVINGTON HISTORICAL SOCIETY INC	GENERAL MUSEUM	31.30243	-86.48793	0.0	0.0
TONEY SCHOOL COMMUNITY MUSEUM	TONEY SCHOOL COMMUNITY MUSEUM INC	HISTORY MUSEUM	34.89494	-86.77529	23566.0	23566.0
TRAIL OF LEGENDS ASSOCIATION	TRAIL OF LEGENDS ASSOCIATION INC	HISTORY MUSEUM	32.59985	-86.20616	0.0	0.0
TRIANA HISTORICAL SOCIETY	TRIANA HISTORICAL SOCIETY	HISTORIC PRESERVATION	34.66738	-86.75223	0.0	0.0
TROY-PIKE CULTURAL ARTS CENTER	TROY-PIKE CULTURAL ARTS CENTER INC	ART MUSEUM	31.80862	-85.97027	217954.0	217954.0
TUSCALOOSA COUNTY PRESERVATION SOCIETY	TUSCALOOSA COUNTY PRESERVATION SOCIETY INC	HISTORIC PRESERVATION	33.20494	-87.56643	186237.0	186237.0
TUSCALOOSA GENEALOGICAL SOCIETY	TUSCALOOSA GENEALOGICAL SOCIETY INC	HISTORIC PRESERVATION	33.2029	-87.56242	0.0	0.0
TUSKEGEE AIRMEN NATIONAL HISTORIC SITE	FRIENDS OF TUSKEGEE AIRMEN NATIONAL HISTORIC SITE INC	HISTORIC PRESERVATION	32.42987	-85.68729	12945.0	9788.0
TUSKEGEE HUMAN & CIVIL RIGHTS	TUSKEGEE HUMAN AND CIVIL RIGHTS MULTICULTURAL CENTER	GENERAL MUSEUM	32.42215	-85.69088	189558.0	189558.0
TWICKENHAM HISTORIC PRESERVATION DISTRICT ASSOCIATION	TWICKENHAM HISTORIC PRESERVATION DISTRICT ASSOCIATION	HISTORIC PRESERVATION	34.72973	-86.58248	124168.0	124168.0
U. S. ARMY AVIATION MUSEUM	ARMY AVIATION MUSEUM FOUNDATION INC	GENERAL MUSEUM	31.34936	-85.71978	406078.0	256287.0
U.S. SPACE & ROCKET CENTER	U.S. SPACE & ROCKET CENTER FOUNDATION	GENERAL MUSEUM	34.7138	-86.62841	2022595.0	2022595.0
UNION PRESERVATION SOCIETY	UNION PRESERVATION SOCIETY INC	HISTORIC PRESERVATION	32.41973	-85.16797	0.0	0.0
VALORS VOICE	VALORS VOICE INC	HISTORIC PRESERVATION	34.36233	-86.43677	0.0	0.0
VESTAVIA HILLS HISTORICAL SOCIETY	VESTAVIA HILLS HISTORICAL SOCIETY	HISTORIC PRESERVATION	33.4368	-86.78845	0.0	0.0
VREDENBURGH HISTORICAL SOCIETY	VREDENBURGH HISTORICAL SOCIETY INC	HISTORIC PRESERVATION	31.8139	-87.37517	0.0	0.0
VULCAN PARK AND MUSEUM	VULCAN PARK FOUNDATION	ARBORETUM, BOTANICAL GARDEN, OR NATURE CENTER	33.49037	-86.79686	1418325.0	1349832.0
WALKER COUNTY GENEALOGICAL SOCIETY	WALKER COUNTY GENEALOGICAL SOCIETY INC	HISTORIC PRESERVATION	33.82961	-87.27733	0.0	0.0
WALNUT GALLERY	WALNUT GALLERY INC	ART MUSEUM	34.01135	-86.01258	0.0	0.0
WASHINGTON COUNTY HISTORICAL SOCIETY & MUSEUM	WASHINGTON COUNTY HISTORICAL SOCIETY	HISTORIC PRESERVATION	31.47253	-88.29411	0.0	0.0
WASHINGTON COUNTY MUSEUM ASSOCIATION	WASHINGTON COUNTY MUSEUM ASSOCIATION	GENERAL MUSEUM	31.47253	-88.29411	156279.0	32401.0
WEST JEFFERSON COUNTY HISTORICAL SOCIETY	WEST JEFFERSON COUNTY HISTORICAL SOCIETY INC	HISTORIC PRESERVATION	33.3455	-86.9849	5233.0	5233.0
WHITE HOUSE ASSOCIATION	WHITE HOUSE ASSOCIATION	HISTORY MUSEUM	32.37645	-86.29303	97443.0	84992.0
WILCOX HISTORICAL SOCIETY	WILCOX HISTORICAL SOCIETY	HISTORIC PRESERVATION	31.99763	-87.3061	0.0	0.0
WIREGRASS MUSEUM OF ART	THE WIREGRASS MUSEUM OF ART INC	ART MUSEUM	31.22382	-85.38911	616447.0	616447.0
WOMENS GUILD INC OF THE HUNTSVILLE ART LEAGUE AND MUSEUM	WOMENS GUILD INC OF THE HUNTSVILLE ART LEAGUE AND MUSEUM AS	ART MUSEUM	34.72664	-86.57223	193759.0	126914.0
99TH BOMBARDMENT GROUP HISTORICAL SOCIETY	99TH BOMBARDMENT GROUP HISTORICAL SOCIETY	HISTORIC PRESERVATION	36.3252	-91.52692	0.0	0.0
AFRICAN AMERICAN HERITAGE ASSOCIATION	NORTHWEST ARKANSAS AFRICAN AMERICAN HERITAGE ASSOCIATION IN	HISTORIC PRESERVATION	36.01429	-94.04572	0.0	0.0
ALTUS HISTORICAL SOCIETY	ALTUS HISTORICAL SOCIETY	HISTORIC PRESERVATION	35.44574	-93.74349	0.0	0.0
AMERICAN MUSIC MUSEUM	AMERICAN MUSIC MUSEUM INC	GENERAL MUSEUM	34.52253	-90.58635	56592.0	-2579.0
ARKANSAS AIR MUSEUM	ARKANSAS AIR AND MILITARY MUSEUM	HISTORY MUSEUM	36.01731	-94.17278	136056.0	97058.0
ARKANSAS ARTS CENTER	ARKANSAS ARTS CENTER FOUNDATION	ART MUSEUM	34.74343	-92.2651	4803891.0	2298256.0
ARKANSAS AVIATION HISTORICAL SOCIETY	ARKANSAS AVIATION HISTORICAL SOCIETY	HISTORIC PRESERVATION	34.74761	-92.2668	24000.0	-6000.0
ARKANSAS COUNTRY DOCTOR MUSEUM	ARKANSAS COUNTRY DOCTOR MUSEUM	HISTORY MUSEUM	35.95004	-94.42464	105123.0	61281.0
ARKANSAS FALLEN FIREFIGHTERS MEMORIAL	ARKANSAS FALLEN FIREFIGHTERS MEMORIAL	HISTORIC PRESERVATION	34.7449	-92.29327	94916.0	90780.0
ARKANSAS GOVERNORS MANSION	ARKANSAS GOVERNORS MANSION ASSOCIATION	HISTORIC PRESERVATION	34.73098	-92.2763	151926.0	135707.0
ARKANSAS HISTORICAL ASSOCIATION	ARKANSAS HISTORICAL ASSOCIATION	HISTORIC PRESERVATION	36.05216	-94.14502	313808.0	203143.0
ARKANSAS INLAND MARITIME MUSEUM ASSOCIATION	ARKANSAS INLAND MARITIME MUSEUM ASSOCIATION	GENERAL MUSEUM	34.75624	-92.26765	298712.0	276867.0
ARKANSAS MUSEUM OF NATURAL RESOURCES	ARKANSAS MUSEUM OF NATURAL RESOURCES FOUNDATION INC	GENERAL MUSEUM	33.33022	-92.70309	0.0	0.0
ARKANSAS NATURAL RESOURCES MUSEUM	ARKANSAS MUSEUM OF NATURAL RESOURCES FOUNDATION INC	GENERAL MUSEUM	33.35597	-92.73311	0.0	0.0
ARKANSAS POST NATIONAL MEMORIAL	FRIENDS OF ARKANSAS POST NATIONAL MEMORIAL INC	HISTORIC PRESERVATION	33.88555	-91.48912	0.0	0.0
ARKANSAS SPORTS HALL OF FAME	ARKANSAS SPORTS HALL OF FAME INC	GENERAL MUSEUM	34.75348	-92.26518	438194.0	413565.0
ARKANSAS SUPREME COURT HISTORICAL SOCIETY	ARKANSAS SUPREME COURT HISTORICAL SOCIETY INC	HISTORIC PRESERVATION	34.7455	-92.27518	0.0	0.0
ARKANSAS TERRITORIAL RESTORATION	HISTORIC ARKANSAS MUSEUM FOUNDATION INC	HISTORIC PRESERVATION	34.74606	-92.26945	576019.0	214306.0
ART CENTER OF GRAND PRAIRIE	GRAND PRAIRIE ART COUNCIL INC	ART MUSEUM	34.4923	-91.55385	95283.0	95283.0
ART GALLERY	JOHN BROWN UNIVERSITY	ART MUSEUM	36.18922	-94.56199	90059515.0	73739473.0
ARTS AND SCIENCE CENTER FOR SOUTHEAST ARKANSAS	ARTS & SCIENCE CENTER FOR SOUTHEAST ARKANSAS ENDOWMENT FUND	SCIENCE & TECHNOLOGY MUSEUM OR PLANETARIUM	34.22274	-92.00333	336424.0	107552.0
ARTS CENTER OF THE OZARKS	ARTS CENTER OF THE OZARKS	ART MUSEUM	36.18414	-94.13233	1095225.0	1095225.0
ARTS OF UAMS GALLERY	UNIVERSITY OF ARKANSAS FOUNDATION INC	ART MUSEUM	36.04255	-94.16749	377069131.0	155513256.0
ASHLEY COUNTY HISTORICAL SOCIETY	ASHLEY COUNTY HISTORICAL SOCIETY	HISTORIC PRESERVATION	33.22708	-91.79489	0.0	0.0
AVIATION CADET MUSEUM	AVIATION CADET MUSEUM INC	SCIENCE & TECHNOLOGY MUSEUM OR PLANETARIUM	36.43483	-93.69864	96920.0	96920.0
BASS FISHING HALL OF FAME	BASS FISHING HALL OF FAME INC	GENERAL MUSEUM	34.49155	-93.09317	48623.0	48623.0
BATES SCHOOLHOUSE COMMUNITY CENTER	BATES SCHOOLHOUSE COMMUNITY CENTER	HISTORY MUSEUM	34.90993	-94.35752	0.0	0.0
BAUXITE HISTORICAL ASSN MUSEUM	BAUXITE HISTORICAL ASSOCIATION & MUSEUM	HISTORIC PRESERVATION	34.52672	-92.46903	58218.0	57995.0
BAXTER COUNTY HISTORICAL SOCIETY	BAXTER COUNTY HISTORICAL SOCIETY INC	HISTORIC PRESERVATION	36.33547	-92.38287	0.0	0.0
BELLA VISTA HISTORICAL SOCIETY	BELLA VISTA HISTORICAL SOCIETY	HISTORIC PRESERVATION	36.46091	-94.24399	0.0	0.0
BENTON ATHLETIC MEMORIAL MUSEUM	BENTON ATHLETIC MEMORIAL MUSEUM INC	GENERAL MUSEUM	34.57446	-92.58014	0.0	0.0
BENTON COUNTY HISTORICAL SOCIETY	BENTON COUNTY HISTORICAL SOCIETY	HISTORIC PRESERVATION	36.37313	-94.21178	0.0	0.0
BOONE COUNTY HERITAGE MUSEUM	BOONE COUNTY HISTORICAL & RAILROAD SOCIETY INC	GENERAL MUSEUM	36.22893	-93.1124	41466.0	41466.0
BOONE COUNTY HISTORICAL & RAILROAD SOCIETY INC 211 WEST RUSH	BOONE COUNTY HISTORICAL & RAILROAD SOCIETY INC	HISTORY MUSEUM	36.22893	-93.1124	41466.0	41466.0
BOONEVILLE HISTORICAL PRESERVATION SOCIETY	BOONEVILLE HISTORICAL PRESERVATION SOCIETY	HISTORIC PRESERVATION	35.13996	-93.91851	0.0	0.0
BRADLEY COUNTY HISTORICAL MUSEUM	BRADLEY COUNTY HISTORICAL MUSEUM INC	HISTORIC PRESERVATION	33.61416	-92.06614	0.0	0.0
BUFFALO NATIONAL RIVER	BUFFALO NATIONAL RIVER PARTNERS INC	ARBORETUM, BOTANICAL GARDEN, OR NATURE CENTER	36.24987	-93.1307	0.0	0.0
BULL SHOALS HISTORICAL SOCIETY	BULL SHOALS HISTORICAL SOCIETY	HISTORIC PRESERVATION	36.37928	-92.58705	0.0	0.0
CALICO ROCK MUSEUM FOUNDATION	CALICO ROCK MUSEUM FOUNDATION	HISTORY MUSEUM	36.11614	-92.14076	160611.0	138292.0
CANE HILL RESTORATION ASSOCIATION	CANE HILL RESTORATION ASSOCIATION	HISTORIC PRESERVATION	35.86701	-94.41309	0.0	0.0
CARROLL COUNTY HISTORICAL SOCIETY	CARROLL COUNTY HISTORICAL SOCIETY	HISTORIC PRESERVATION	36.3663	-93.56431	0.0	0.0
CENTRAL ARKANSAS ANTIQUE MACHINERY AND HISTORICAL SOCIETY	CENTRAL ARKANSAS ANTIQUE MACHINERY AND HISTORICAL SOCIETY I	HISTORIC PRESERVATION	34.30486	-92.38618	0.0	0.0
CENTRAL DELTA HISTORICAL SOCIETY	CENTRAL DELTA HISTORICAL SOCIETY INC	HISTORIC PRESERVATION	34.88703	-91.18533	22582.0	22582.0
CENTRAL HIGH MUSEUM	CENTRAL HIGH MUSEUM INC	HISTORY MUSEUM	34.73877	-92.29731	0.0	0.0
CHEROKEE VILLAGE HISTORICAL SOCIETY	CHEROKEE VILLAGE HISTORICAL SOCIETY	HISTORIC PRESERVATION	36.31109	-91.53129	0.0	0.0
CHIDESTER MUSEUM AND HISTORIAL ASSOCIATION	CHIDESTER MUSEUM AND HISTORIAL ASSOCIATION	HISTORY MUSEUM	33.66454	-93.02501	0.0	0.0
CHILDREN'S MUSEUM OF NORTHWEST ARKANSAS	CHILDREN'S MUSEUM OF NORTHWEST ARKANSAS	CHILDREN'S MUSEUM	36.37252	-94.20959	14724333.0	14573938.0
CLEBURNE COUNTY HISTORICAL SOCIETY INC TERM	CLEBURNE COUNTY HISTORICAL SOCIETY INC TERM	HISTORIC PRESERVATION	35.4926	-92.02771	0.0	0.0
CLEVELAND COUNTY HISTORICAL SOCIETY	CLEVELAND COUNTY HISTORICAL SOCIETY INCORPORATED	HISTORIC PRESERVATION	33.94306	-92.10224	0.0	0.0
CLINTON HOUSE MUSEUM	CLINTON HOUSE MUSEUM	HISTORY MUSEUM	36.06396	-94.17116	0.0	0.0
CLOVER BEND HISTORICAL AND PRESERVATION DISTRICT	CLOVER BEND HISTORICAL AND PRESERVATION DISTRICT	HISTORIC PRESERVATION	36.2101	-91.20042	12794.0	12794.0
CONWAY COUNTY GENEALOGICAL ASSOCIATION	CONWAY COUNTY GENEALOGICAL ASSOCIATION	HISTORIC PRESERVATION	35.15225	-92.74389	0.0	0.0
COTTON BELT RAIL HISTORICAL SOCIETY	COTTON BELT RAIL HISTORICAL SOCIETY INC	HISTORIC PRESERVATION	34.22917	-91.98583	58683.0	54346.0
COVENANT FARM	COVENANT FARM INC	ZOO, AQUARIUM, OR WILDLIFE CONSERVATION	35.07389	-91.89314	0.0	0.0
CRAWFORD COUNTY GENEALOGICAL SOCIETY	CRAWFORD COUNTY GENEALOGICAL SOCIETY INC	HISTORIC PRESERVATION	35.47836	-94.22203	0.0	0.0
CROSS COUNTY HISTORICAL SOCIETY	CROSS COUNTY HISTORICAL SOCIETY	HISTORIC PRESERVATION	35.22347	-90.78564	69132.0	69132.0
CROSSETT CULTURAL AND HISTORICAL SOCIETY	CROSSETT CULTURAL AND HISTORICAL SOCIETY INC	HISTORIC PRESERVATION	33.13207	-91.97297	0.0	0.0
CROSSETT ZOO	FRIENDS OF THE CROSSETT ZOO	ZOO, AQUARIUM, OR WILDLIFE CONSERVATION	33.13675	-91.96326	0.0	0.0
DAISY AIRGUN MUSEUM	DAISY AIRGUN MUSEUM	SCIENCE & TECHNOLOGY MUSEUM OR PLANETARIUM	36.33302	-94.11757	384251.0	196440.0
DALLAS COUNTY MUSEUM	DALLAS COUNTY MUSEUM INC	HISTORY MUSEUM	33.81207	-92.41194	83384.0	64758.0
DELTA GATEWAY MUSEUM	DGM ASSOCIATION	HISTORY MUSEUM	35.92751	-89.90449	0.0	0.0
DERMOTT HISTORICAL MUSEUM	DERMOTT HISTORICAL MUSEUM INC	HISTORIC PRESERVATION	33.52779	-91.4346	0.0	0.0
DESHA COUNTY HISTORICAL SOCIETY	DESHA COUNTY HISTORICAL SOCIETY INC	HISTORIC PRESERVATION	33.62835	-91.39803	0.0	0.0
DESHA COUNTY MUSEUM SOCIETY	DESHA COUNTY MUSEUM SOCIETY	GENERAL MUSEUM	33.89026	-91.49718	0.0	0.0
EDDIE MAE HERRON CENTER	EDDIE MAE HERRON CENTER	HISTORY MUSEUM	36.25823	-90.97967	0.0	0.0
EMOBA MUSEUM OF BLACK ARKANSANS	ERNIES MUSEUM OF BLACK ARKANSANS HALL OF FAME AND MUSIC THE	GENERAL MUSEUM	34.73738	-92.27378	43407.0	43407.0
ERNIE'S MUSEUM ON BLACK ARKANSANS HALL OF FAME AND MUSIC THEATER	ERNIES MUSEUM OF BLACK ARKANSANS HALL OF FAME AND MUSIC THE	GENERAL MUSEUM	34.73738	-92.27378	43407.0	43407.0
EUREKA SPRINGS HISTORICAL MUSEUM	EUREKA SPRINGS HISTORICAL MUSEUM INC	HISTORIC PRESERVATION	36.39972	-93.7407	64376.0	53647.0
FAIRFIELD BAY LOG CABIN MUSEUM	FAIRFIELD BAY LOG CABIN MUSEUM INC	GENERAL MUSEUM	35.59905	-92.27042	0.0	0.0
FAULKNER COUNTY MUSEUM	FAULKNER COUNTY MUSEUM FOUNDATION INC	GENERAL MUSEUM	35.08869	-92.44256	0.0	0.0
FIVE RIVERS HISTORIC PRESERVATION	FIVE RIVERS HISTORIC PRESERVATION INC	HISTORIC PRESERVATION	36.26456	-90.96728	32485.0	29972.0
FORT SMITH AIR MUSEUM	FORT SMITH AIR MUSEUM	GENERAL MUSEUM	35.34538	-94.36021	0.0	0.0
FORT SMITH HISTORICAL SOCIETY	THE FORT SMITH HISTORICAL SOCIETY INC	HISTORIC PRESERVATION	35.38415	-94.37616	0.0	0.0
FORT SMITH MUSEUM OF HISTORY	FORT SMITH MUSEUM OF HISTORY	HISTORY MUSEUM	35.38803	-94.42872	319256.0	279517.0
FOURCHE VALLEY CULTURAL PRESERVATION AND RESTORATION	FOURCHE VALLEY CULTURAL PRESERVATION AND RESTORATION	HISTORIC PRESERVATION	34.86152	-93.78302	0.0	0.0
GALLERY	HENDRIX COLLEGE	ART MUSEUM	35.1009	-92.44424	111301561.0	80789073.0
GANN MUSEUM OF SALINE COUNTY	GANN MUSEUM OF SALINE COUNTY	GENERAL MUSEUM	34.57625	-92.57741	0.0	0.0
GARLAND COUNTY HISTORICAL SOCIETY	GARLAND COUNTY HISTORICAL SOCIETY	HISTORIC PRESERVATION	34.5078	-93.05779	68998.0	49571.0
GEORGE D HAY COUNTRY MUSIC HALL OF FAME & MUSEUM	GEORGE D HAY COUNTRY MUSIC HALL OF FAME & MUSEUM	GENERAL MUSEUM	36.46293	-91.54586	0.0	0.0
GLADE COMMUNITY HISTORICAL SOCIETY	GLADE COMMUNITY HISTORICAL SOCIETY INC	HISTORIC PRESERVATION	36.43338	-93.96346	6721.0	6721.0
GOOD EARTH ASSOCIATION	GOOD EARTH ASSOCIATION INC	HISTORIC PRESERVATION	36.26435	-90.9683	0.0	0.0
GRAND PRAIRIE HISTORICAL SOCIETY	GRAND PRAIRIE HISTORICAL SOCIETY INC	HISTORIC PRESERVATION	34.11019	-91.36915	0.0	0.0
GRAPEVINE HISTORICAL SOCIETY	ASPIRNAUT	HISTORIC PRESERVATION	34.76672	-92.40065	69988.0	69988.0
GREATER EUREKA SPRINGS VISITOR EDUCATION CENTER	GREATER EUREKA SPRINGS VISITOR EDUCATION CENTER INC	HISTORIC PRESERVATION	36.41029	-93.74534	0.0	0.0
GREENE COUNTY COURTHOUSE PRESERVATION SOCIETY	GREENE COUNTY COURTHOUSE PRESERVATION SOCIETY INC	HISTORIC PRESERVATION	36.05613	-90.48946	0.0	0.0
GREENE COUNTY HISTORICAL AND GENEALOGICAL SOCIETY	GREENE COUNTY HISTORICAL AND GENEALOGICAL SOCIETY	HISTORIC PRESERVATION	36.05613	-90.48757	0.0	0.0
GREENE COUNTY MUSEUM	GREENE COUNTY MUSEUM INC	GENERAL MUSEUM	36.05631	-90.4874	0.0	0.0
HAMMONS GALLERY	OUACHITA BAPTIST UNIVERSITY	ART MUSEUM	34.12446	-93.05134	86138057.0	61089833.0
HELENA MUSEUM OF PHILLIPS COUNTY	HELENA MUSEUM OF PHILLIPS COUNTY INC	GENERAL MUSEUM	34.52833	-90.5886	1926208.0	1926208.0
HEMPSTEAD COUNTY HISTORICAL SOCIETY	HEMPSTEAD COUNTY HISTORICAL SOCIETYINC	HISTORIC PRESERVATION	33.66609	-93.58733	0.0	0.0
HERITAGE HOUSE MUSEUM OF MONTGOMERY COUNTY	HERITAGE HOUSE MUSEUM OF MONTGOMERY COUNTY INC	HISTORY MUSEUM	34.55149	-93.58108	48853.0	47537.0
HISTORIC ARKANSAS MUSEUM	HISTORIC ARKANSAS MUSEUM FOUNDATION INC	HISTORIC PRESERVATION	34.74606	-92.26945	576019.0	214306.0
HISTORIC PRESERVATION ALLIANCE OF ARKANSAS	HISTORIC PRESERVATION ALLIANCE OF ARKANSAS INC	HISTORIC PRESERVATION	34.75717	-92.26893	198127.0	198127.0
HISTORIC SPRINGDALE	HISTORIC SPRINGDALE	HISTORIC PRESERVATION	36.18498	-94.13077	0.0	0.0
HOO-HOO MUSEUM	HOO-HOO MUSEUM	GENERAL MUSEUM	33.92408	-93.14267	19251.0	19251.0
HOSTELLING ARKANSAS	HOSTELLING ARKANSAS	GENERAL MUSEUM	34.74292	-92.25736	0.0	0.0
HOT SPRING COUNTY ARKANSAS HISTORICAL SOCIETY	HOT SPRING COUNTY ARKANSAS HISTORICAL SOCIETY	HISTORIC PRESERVATION	34.37237	-92.81277	0.0	0.0
HOT SPRING COUNTY MUSEUM COMMISSION	HOT SPRING COUNTY MUSEUM COMMISSION	GENERAL MUSEUM	34.32986	-92.80458	0.0	0.0
HOWARD COUNTY CHILDREN'S CENTER	HOWARD COUNTY CHILDRENS CENTER INC	CHILDREN'S MUSEUM	33.95166	-93.86406	6910378.0	4346136.0
INTERNATIONAL HOO-HOO HEADQUARTERS AND MUSEUM	INTERNATIONAL CONCATENATED ORDER OF HOO HOO	HISTORIC PRESERVATION	33.91867	-93.15087	73690.0	73690.0
IZARD COUNTY HISTORICAL AND GENEALOGICAL SOCIETY	IZARD COUNTY HISTORICAL AND GENEALOGICAL SOCIETY	HISTORIC PRESERVATION	35.91806	-92.06308	0.0	0.0
JACKSON COUNTY HISTORICAL SOCIETY	JACKSON COUNTY HISTORICAL SOCIETY	HISTORIC PRESERVATION	35.60852	-91.25215	0.0	0.0
JACKSONVILLE MUSEUM OF MILITARY HISTORY	LITTLE ROCK AIR FORCE BASE HISTORICAL FOUNDATION INC	GENERAL MUSEUM	34.86416	-92.12248	129838.0	124987.0
JOHNSON COUNTY HISTORICAL SOCIETY	JOHNSON COUNTY HISTORICAL SOCIETY INC	HISTORIC PRESERVATION	35.47108	-93.46233	39099.0	39099.0
KRESGE GALLERY	LYON COLLEGE	ART MUSEUM	35.77896	-91.62714	26476071.0	20791522.0
LOGAN COUNTY MUSEUM	LOGAN COUNTY MUSEUM ASSOCIATION INC	GENERAL MUSEUM	35.29354	-93.7316	0.0	0.0
LONOKE COUNTY HISTORICAL SOCIETY	THE LONOKE COUNTY HISTORICAL SOCIETY	HISTORIC PRESERVATION	34.78382	-91.90148	0.0	0.0
LONOKE COUNTY MUSEUM	LONOKE COUNTY MUSEUM	HISTORY MUSEUM	34.78382	-91.90143	0.0	0.0
MADISON COUNTY GENEALOGICAL AND HISTORICAL SOCIETY	MADISON COUNTY GENEALOGICAL AND HISTORICAL SOCIETY	HISTORIC PRESERVATION	36.08403	-93.74214	0.0	0.0
MANESS HISTORICAL SOCIETY	MANESS HISTORICAL SOCIETY INC	HISTORIC PRESERVATION	35.33292	-94.31039	0.0	0.0
MARIANNA HISTORIC TRUST	MARIANNA HISTORIC TRUST	HISTORIC PRESERVATION	34.73565	-90.69034	18217.0	18217.0
MARIANNA LEE COUNTY MUSEUM	MARIANNA LEE COUNTY MUSEUM ASSOCIATION	GENERAL MUSEUM	34.77344	-90.75762	0.0	0.0
MARION COUNTY ARKANSAS HERITAGE SOCIETY	MARION COUNTY ARKANSAS HERITAGE SOCIETY	HISTORIC PRESERVATION	36.24265	-92.69523	0.0	0.0
MELTING POT GENEALOGICAL SOCIETY	MELTING POT GENEALOGICAL SOCIETY	HISTORIC PRESERVATION	34.5038	-93.06074	0.0	0.0
MID-AMERICA MUSEUM	MID-AMERICA SCIENCE MUSEUM	NATURAL HISTORY MUSEUM	34.51894	-93.11695	2004885.0	1944192.0
MILLER COUNTY HISTORICAL SOCIETY	MILLER COUNTY HISTORICAL SOCIETY INC	HISTORIC PRESERVATION	33.30256	-93.87752	0.0	0.0
MISSISSIPPI COUNTY HISTORICAL AND GENEALOGICAL SOCIETY	MISSISSIPPI COUNTY HISTORICAL AND GENEALOGICAL SOCIETY	HISTORIC PRESERVATION	35.70268	-89.96956	0.0	0.0
MOSAIC TEMPLARS CULTURAL CENTER	FRIENDS OF MOSAIC TEMPLARS CULTURAL CENTER INC	HISTORY MUSEUM	34.74343	-92.2651	9900.0	6273.0
MT SHERMAN HISTORICAL COMMUNITY CENTER	MT SHERMAN HISTORICAL COMMUNITY CENTER	HISTORIC PRESERVATION	36.00777	-93.18841	0.0	0.0
MUSEUM OF AUTOMOBILES	MUSEUM OF AUTOMOBILES INC	GENERAL MUSEUM	35.13259	-92.89097	342148.0	322923.0
MUSEUM OF CHICOT COUNTY ARKANSAS	MUSEUM OF CHICOT COUNTY ARKANSAS	GENERAL MUSEUM	33.32333	-91.28455	0.0	0.0
MUSEUM OF CONTEMPORARY ART OF HOT SPRINGS	MUSEUM OF CONTEMPORARY ART OF HOT SPRINGS INC	ART MUSEUM	36.05613	-90.50345	99811.0	-106157.0
MUSEUM OF DISCOVERY	MUSEUM OF DISCOVERY	GENERAL MUSEUM	34.70142	-92.16606	6463706.0	6325448.0
MUSEUM OF MILITARY HISTORY	MUSEUM OF MILITARY HISTORY	GENERAL MUSEUM	35.27609	-93.13238	0.0	0.0
MUSEUM OF THE ARKANSAS GRAND PRAIRIE	MUSEUM OF THE ARKANSAS GRAND PRAIRIE INC	HISTORY MUSEUM	34.49924	-91.54159	176163.0	146632.0
MUSEUM OF THE HARDWOOD TREE	MUSEUM OF THE HARDWOOD TREE	GENERAL MUSEUM	35.28527	-94.41583	6245.0	6245.0
MUSEUM OF VETERANS AND MILITARY HISTORY	MUSEUM OF VETERANS AND MILITARY HISTORY	GENERAL MUSEUM	35.08855	-92.21089	15452.0	14157.0
MUSIC FORT SMITH	MUSIC FORT SMITH	HISTORIC PRESERVATION	35.39039	-94.42385	0.0	0.0
NEVADA COUNTY DEPOT AND MUSEUM	NEVADA COUNTY DEPOT AND MUSEUM	GENERAL MUSEUM	33.79965	-93.38431	0.0	0.0
NEWTON COUNTY HISTORICAL SOCIETY	NEWTON COUNTY HISTORICAL SOCIETY	HISTORIC PRESERVATION	36.00821	-93.18699	0.0	0.0
NORMAN HISTORIC PRESERVATION PROGRAM	NORMAN HISTORIC PRESERVATION PROGRAM INC	HISTORIC PRESERVATION	34.47009	-93.70638	27457.0	25427.0
NORTHEAST ARKANSAS LIVING HISTORIANS	NORTHEAST ARKANSAS LIVING HISTORIANS	HISTORIC PRESERVATION	36.0624	-90.55298	0.0	0.0
NORTHWEST ARKANSAS GENEALOGICAL SOCIETY	NORTHWEST ARKANSAS GENEALOGICAL SOCIETY INC	HISTORIC PRESERVATION	36.36756	-94.20831	0.0	0.0
OLD FORT MUSEUM	OLD FORT MUSEUM ENDOWMENT TR	GENERAL MUSEUM	35.38803	-94.42872	8488.0	8488.0
OLD INDEPENDENCE REGIONAL MUSEUM	OLD INDEPENDENCE REGIONAL MUSEUM INC	HISTORY MUSEUM	35.77291	-91.64454	163962.0	151851.0
OLD PATHS HISTORICAL LIBRARY	OLD PATHS HISTORICAL LIBRARY INC	HISTORIC PRESERVATION	36.40645	-94.21891	0.0	0.0
OLD STATE HOUSE MUSEUM	OLD STATE HOUSE MUSEUM ASSOCIATES	GENERAL MUSEUM	34.7702	-92.33373	41573.0	26961.0
OLD STATES HOUSE MUSEUM	OLD STATES HOUSE MUSEUM 1836 CLUB INC	HISTORY MUSEUM	34.74858	-92.27331	0.0	0.0
OZARK HERITAGE ART CENTER & MUSEUM	OZARK HERITAGE ARTS CENTER	ART MUSEUM	35.83104	-92.55868	17108.0	17108.0
PARIS COALMINERS MEMORIAL AND MINI MINE	PARIS COALMINERS MEMORIAL AND MINI MINE	HISTORIC PRESERVATION	35.28631	-93.73008	0.0	0.0
PARK CENTRAL LITTLE ROCK	PARK CENTRAL LITTLE ROCK	HISTORIC PRESERVATION	34.73703	-92.29739	0.0	0.0
PEA RIDGE HISTORICAL SOCIETY	PEA RIDGE HISTORICAL SOCIETY INC	HISTORIC PRESERVATION	36.43909	-94.1258	0.0	0.0
PEA RIDGE NATIONAL MILITARY PARK	PEA RIDGE NATIONAL MILITARY PARK FOUNDATION	HISTORIC PRESERVATION	36.44272	-94.02593	0.0	0.0
PERRY COUNTY HISTORICAL MUSEUM	PERRY COUNTY HISTORICAL MUSEUM	HISTORY MUSEUM	34.97681	-92.82581	0.0	0.0
PINE BLUFF JEFFERSON COUNTY HISTORICAL MUSEUM	PINE BLUFF JEFFERSON COUNTY HISTORICAL MUSEUM	HISTORIC PRESERVATION	34.22618	-92.00239	77698.0	72206.0
PIONEER WASHINGTON RESTORATION FOUNDATION	PIONEER WASHINGTON RESTORATION FOUNDATION INC	HISTORIC PRESERVATION	33.79774	-93.63071	195023.0	87270.0
PROFESSIONAL BASS FISHING	BASS FISHING HALL OF FAME INC	GENERAL MUSEUM	34.49155	-93.09317	48623.0	48623.0
PULASKI COUNTY HISTORICAL SOCIETY	PULASKI COUNTY HISTORICAL SOCIETY INC	HISTORIC PRESERVATION	34.7576	-92.32424	0.0	0.0
RECTOR HIGH SCHOOL SPORTS HALL OF FAME	RECTOR HIGH SCHOOL SPORTS HALL OF FAME INC	GENERAL MUSEUM	35.82443	-90.73641	0.0	0.0
REEDS BRIDGE BATTLEFIELD PRESERVATION SOCIETY	REEDS BRIDGE BATTLEFIELD PRESERVATION SOCIETY INC	HISTORIC PRESERVATION	34.86646	-92.1222	27079.0	27079.0
RIVER VALLEY BOTANICAL GARDENS	RIVER VALLEY BOTANICAL GARDENS	ARBORETUM, BOTANICAL GARDEN, OR NATURE CENTER	35.3689	-94.38493	0.0	0.0
RIVER VALLEY MUSEUM OF VAN BUREN	RIVER VALLEY MUSEUM OF VAN BUREN	HISTORY MUSEUM	35.43734	-94.35076	0.0	0.0
ROCKY BRANCH SCHOOL PRESERVATION ASSOCIATES	ROCKY BRANCH SCHOOL PRESERVATION ASSOCIATES INC	HISTORY MUSEUM	36.33108	-93.91726	0.0	0.0
ROGERS HISTORICAL MUSEUM	FRIENDS OF THE ROGERS HISTORICAL MUSEUM	HISTORIC PRESERVATION	36.33027	-94.11814	0.0	0.0
SALINE COUNTY HISTORY HERITAGE SOCIETY	SALINE COUNTY HISTORY & HERITAGE SOCIETY INC	HISTORIC PRESERVATION	34.57625	-92.57741	0.0	0.0
SCOTT COUNTY HISTORICAL GENEALOGICAL SOCIETY	SCOTT COUNTY GENEALOGICAL SOCIETY INC	HISTORIC PRESERVATION	38.68191	-85.79167	0.0	0.0
SEARCY COUNTY HISTORICAL SOCIETY	SEARCY COUNTY HISTORICAL SOCIETY INC	HISTORIC PRESERVATION	35.91359	-92.61975	0.0	0.0
SEVIER COUNTY HISTORICAL SOCIETY	SEVIER COUNTY HISTORICAL SOCIETY INC	HISTORIC PRESERVATION	34.03993	-94.33466	0.0	0.0
SILOAM SPRINGS MUSEUM SOCIETY	SILOAM SPRINGS MUSEUM SOCIETY	GENERAL MUSEUM	36.18564	-94.54003	58031.0	58031.0
SONNY BOY BLUES SOCIETY	SONNY BOY BLUES SOCIETY INC	HISTORIC PRESERVATION	34.54006	-90.61527	824920.0	824920.0
SONS CHAPEL RURAL BUILDERS ASSOCIATION	SONS CHAPEL RURAL BUILDERS ASSOCIATION INC	HISTORIC PRESERVATION	36.10141	-94.11661	0.0	0.0
SOUTH ARKANSAS ARTS CENTER	SOUTH ARKANSAS ARTS CENTER	ART MUSEUM	33.22186	-92.6623	3921906.0	1417396.0
SOUTH EAST PIKE COUNTY ALLIANCE	SOUTH EAST PIKE COUNTY ALLIANCE	HISTORIC PRESERVATION	35.71526	-92.27439	0.0	0.0
SOUTH SEBASTIAN COUNTY HISTORICAL SOCIETY	SOUTH SEBASTIAN COUNTY HISTORICAL SOCIETY INC	HISTORIC PRESERVATION	35.20554	-94.25344	0.0	0.0
SOUTHWEST ARK REGIONAL ARCHIVES	SOUTHWEST ARKANSAS REGIONAL ARCHIVES FOUNDATION INC	GENERAL MUSEUM	33.79774	-93.63071	0.0	0.0
STEPHENS ART GALLERY	UNIVERSITY OF THE OZARKS	ART MUSEUM	35.47474	-93.46687	46022397.0	29146944.0
STEVENS ART GALLERY	HARDING UNIVERSITY	ART MUSEUM	35.24044	-91.7143	149721327.0	149716437.0
STONE COUNTY HISTORICAL SOCIETY	STONE COUNTY HISTORICAL SOCIETY	HISTORIC PRESERVATION	35.86527	-92.11232	0.0	0.0
SUGAR CREEK MODEL RAILROAD & HISTORICAL SOCIETY	SUGAR CREEK MODEL RAILROAD & HISTORICAL SOCIETY INC	HISTORIC PRESERVATION	36.4647	-94.32169	0.0	0.0
TEX-ARK ANTIQUE AUTO MUSEUM	TEX-ARK ANTIQUE AUTO MUSEUM	GENERAL MUSEUM	33.42404	-94.03769	0.0	0.0
THE BARN AT HOLIDAY ISLAND	FRIENDS OF THE BARN	HISTORIC PRESERVATION	36.49276	-93.75592	0.0	0.0
TIRED IRON OF THE OZARKS	TIRED IRON OF THE OZARKS INC	HISTORY MUSEUM	36.23642	-94.51751	0.0	0.0
TRAIL OF TEARS ASSOCIATION	TRAIL OF TEARS ASSOCIATION	HISTORIC PRESERVATION	36.24583	-94.1715	221998.0	221998.0
TRAILS TO TUCKERMAN HISTORICAL SOCIETY	TRAILS TO TUCKERMAN HISTORICAL SOCIETY INC	HISTORIC PRESERVATION	35.71505	-91.21164	0.0	0.0
U.S. MARSHALS MUSEUM	US MARSHALS MUSEUM INC	HISTORIC PRESERVATION	35.38913	-94.42784	59562.0	59562.0
UNION COUNTY GENEALOGICAL SOCIETY	UNION COUNTY GENEALOGICAL SOCIETY	HISTORIC PRESERVATION	33.22188	-92.66284	0.0	0.0
UNION COUNTY SPORTS HALL OF FAME	UNION COUNTY SPORTS HALL OF FAME INC	GENERAL MUSEUM	33.24553	-92.67113	0.0	0.0
VAN BUREN COUNTY HISTORICAL MUSEUM	VAN BUREN COUNTY HISTORICAL MUSEUM INC BERT STARK & GARNIE	HISTORY MUSEUM	35.59093	-92.48076	0.0	0.0
VAN BUREN PLACE HISTORIC DISTRICT	VAN BUREN HISTORIC DEVELOPMENT INCORPORATED	HISTORIC PRESERVATION	35.43596	-94.35323	0.0	0.0
VILLAGE GENEALOGICAL SOCIETY	VILLAGE GENEALOGICAL SOCIETY INC	HISTORIC PRESERVATION	34.6707	-93.04992	0.0	0.0
WALNUT RIDGE ARMY FLYING SCHOOL MUSEUM	WALNUT RIDGE ARMY FLYING SCHOOL MUSEUM INC	GENERAL MUSEUM	36.07466	-90.96432	0.0	0.0
WASHINGTON COUNTY HISTORICAL SOCIETY	THE WASHINGTON COUNTY HISTORIC PRESERVATION ASSOCIATION INC	HISTORIC PRESERVATION	36.06839	-94.16691	0.0	0.0
WASHINGTON COUNTY HISTORICAL SOCIETY	WASHINGTON COUNTY HISTORICAL SOCIETY-INC	HISTORIC PRESERVATION	36.06625	-94.1575	180341.0	89906.0
WESTERN ARKANSAS NATURE CENTER PARTNERS	WESTERN ARKANSAS NATURE CENTER PARTNERS INC	ARBORETUM, BOTANICAL GARDEN, OR NATURE CENTER	35.36196	-94.39078	0.0	0.0
WHITE COUNTY HISTORICAL SOCIETY	WHITE COUNTY HISTORICAL SOCIETY INC	HISTORIC PRESERVATION	35.25265	-91.7429	0.0	0.0
WILDWOOD PARK FOR THE PERFORMING ARTS	WILDWOOD PARK FOR THE ARTS INC	ARBORETUM, BOTANICAL GARDEN, OR NATURE CENTER	34.78982	-92.47191	747065.0	707947.0
WINSLOW MUSEUM	WINSLOW MUSEUM	GENERAL MUSEUM	35.80039	-94.13513	0.0	0.0
YELL COUNTY HISTORICAL & GENEALOGICAL SOCIETY	YELL COUNTY HISTORICAL & GENEALOGICAL SOCIETY	HISTORIC PRESERVATION	35.21721	-93.15507	0.0	0.0
AFRICAN AMERICAN MULTICULTURAL MUSEUM	AFRICAN AMERICAN MULTICULTURAL MUSEUM	HISTORY MUSEUM	33.45481	-111.92598	0.0	0.0
AGUA CALIENTE	FRIENDS OF AGUA CALIENTE	HISTORIC PRESERVATION	32.27952	-110.72825	0.0	0.0
AJO HISTORICAL SOCIETY	AJO HISTORICAL SOCIETY INC	HISTORIC PRESERVATION	32.36256	-112.8721	3885.0	3885.0
ALWUN HOUSE FOUNDATION	ALWUN HOUSE FOUNDATION	ART MUSEUM	33.45894	-112.05542	78472.0	69944.0
AMERICAN AVIATION HISTORICAL SOCIETY PHOENIX WING	AMERICAN AVIATION HISTORICAL SOCIETY PHOENIX WING	HISTORIC PRESERVATION	33.36615	-111.87388	0.0	0.0
AMERICAN HEROES MUSEUM AT DESERT LAWN CEMETERY	AMERICAN HEROES MUSEUM AT DESERT LAWN CEMETERY INC	GENERAL MUSEUM	34.90291	-114.59345	6500.0	6500.0
ANZA SOCIETY	ANZA SOCIETY INC	HISTORIC PRESERVATION	32.42622	-110.95903	0.0	0.0
ANZA TRAIL COALITION ARIZONA	ANZA TRAIL COALITION OF ARIZONA	GENERAL MUSEUM	31.61326	-111.04793	0.0	0.0
APACHE COUNTY HISTORICAL SOCIETY	APACHE COUNTY HISTORICAL SOCIETY	HISTORIC PRESERVATION	34.5065	-109.37764	0.0	0.0
ARIZONA AEROSPACE FOUNDATION	ARIZONA AEROSPACE FOUNDATION INC	SCIENCE & TECHNOLOGY MUSEUM OR PLANETARIUM	32.14063	-110.85327	6735601.0	6244363.0
ARIZONA AFRICAN ART MUSEUM	ARIZONA OPERA COMPANY	ART MUSEUM	33.46724	-112.07461	5779792.0	5746357.0
ARIZONA ARCHAEOLOGICAL AND HISTORICAL SOCIETY	ARIZONA ARCHAEOLOGICAL AND HISTORICAL SOCIETY	HISTORIC PRESERVATION	32.23796	-110.95667	121789.0	121789.0
ARIZONA COUNCIL FOR HISTORY EDUCATION	ARIZONA COUNCIL FOR HISTORY EDUCATION	HISTORIC PRESERVATION	33.43681	-111.943	0.0	0.0
ARIZONA COWBOY HALL OF FAME AND MUSEUM	ARIZONA COWBOY HALL OF FAME ANDMUSEUM INC	GENERAL MUSEUM	34.38606	-111.4547	0.0	0.0
ARIZONA COWBOY SYMPOSIUM ASSOCIATION	ARIZONA COWBOY SYMPOSIUM ASSOCIATION INC	HISTORIC PRESERVATION	32.27082	-111.02985	0.0	0.0
ARIZONA DIAMONDBACKS FOUNDATION	ARIZONA DIAMONDBACKS FOUNDATION INC	SCIENCE & TECHNOLOGY MUSEUM OR PLANETARIUM	33.44643	-112.06731	6064001.0	4110958.0
ARIZONA DOLL AND TOY MUSEUM	ARIZONA DOLL AND TOY MUSEUM	GENERAL MUSEUM	33.54212	-112.18544	0.0	0.0
ARIZONA FOLKLORE PRESERVE	ARIZONA FOLKLORE PRESERVE INC	ZOO, AQUARIUM, OR WILDLIFE CONSERVATION	33.59475	-111.9792	33375.0	33375.0
ARIZONA GENEALOGICAL ADVISORY BOARD	ARIZONA GENEALOGICAL ADVISORY BOARD	HISTORIC PRESERVATION	33.41803	-111.83136	0.0	0.0
ARIZONA HISTORICAL SOCIETY	NORTHERN ARIZONA PIONEERS HISTORICAL SOCIETY	HISTORIC PRESERVATION	35.22355	-111.65579	73742.0	71429.0
ARIZONA HISTORICAL SOCIETY	ARIZONA HISTORICAL SOCIETY	HISTORIC PRESERVATION	32.23308	-110.95736	0.0	0.0
ARIZONA HISTORICAL SOCIETY RIO COLORADO DIVISION	YUMA COUNTY HISTORICAL SOCIETY INC	HISTORIC PRESERVATION	32.72335	-114.61968	75043.0	44456.0
ARIZONA HISTORICAL SOCIETY SOUTHERN DIVISION	ARIZONA HISTORICAL SOCIETY	HISTORIC PRESERVATION	32.23308	-110.95736	0.0	0.0
ARIZONA JEWISH HISTORICAL SOCIETY	ARIZONA JEWISH HISTORICAL SOCIETY	HISTORIC PRESERVATION	33.46285	-112.07235	281971.0	281971.0
ARIZONA MILITARY HERITAGE CENTER	ARIZONA AEROSPACE FOUNDATION INC	SCIENCE & TECHNOLOGY MUSEUM OR PLANETARIUM	32.14063	-110.85327	6735601.0	6244363.0
ARIZONA MUSEUM OF NATURAL HISTORY	ARIZONA MUSEUM OF NATURAL HISTORY FOUNDATION	NATURAL HISTORY MUSEUM	33.41665	-111.83358	130535.0	128165.0
ARIZONA NATIONAL GUARD HISTORICAL SOCIETY	ARIZONA NATIONAL GUARD HISTORICAL SOCIETY	HISTORIC PRESERVATION	32.96342	-112.14539	0.0	0.0
ARIZONA OPEN WHEEL RACING MUSEUM	ARIZONA OPEN WHEEL RACING MUSEUM	GENERAL MUSEUM	33.40766	-112.00493	0.0	0.0
ARIZONA QUILTERS HALL OF FAME	ARIZONA QUILTERS HALL OF FAME INC	GENERAL MUSEUM	32.20523	-110.94673	0.0	0.0
ARIZONA RAILWAY MUSEUM	ARIZONA RAILWAY MUSEUM	GENERAL MUSEUM	33.30463	-111.83867	83471.0	77773.0
ARIZONA SCIENCE CENTER	ARIZONA SCIENCE CENTER	SCIENCE & TECHNOLOGY MUSEUM OR PLANETARIUM	33.44833	-112.06619	9570267.0	9054937.0
ARIZONA SCOUTING MUSEUM	THE ARIZONA SCOUTING MUSEUM	GENERAL MUSEUM	33.66475	-112.0242	0.0	0.0
ARIZONA SONORA DESERT MUSEUM	ARIZONA SONORA DESERT MUSEUM	NATURAL HISTORY MUSEUM	32.24472	-111.16237	13227687.0	8412523.0
ARIZONA STATE CAPITOL MUSEUM	THE ARIZONA STATE CAPITOL MUSEUM GUILD	GENERAL MUSEUM	33.44998	-112.09509	0.0	0.0
ARIZONA STATE RAILROAD MUSEUM	ARIZONA STATE RAILROAD MUSEUM FOUNDATION	GENERAL MUSEUM	35.25162	-112.18642	120966.0	120966.0
ARIZONA ZOOLOGICAL SOCIETY	ARIZONA ZOOLOGICAL SOCIETY	ZOO, AQUARIUM, OR WILDLIFE CONSERVATION	33.44922	-111.94794	26541743.0	24479643.0
ARIZONA-SONORA DESERT MUSEUM	ARIZONA-SONORA DESERT MUSEUM	ZOO, AQUARIUM, OR WILDLIFE CONSERVATION	32.24639	-111.18003	13227687.0	8412523.0
ART CAR WORLD	ART CAR WORLD	GENERAL MUSEUM	31.34242	-109.5553	0.0	0.0
B-26 MARAUDER HISTORICAL SOCIETY	B-26 MARAUDER HISTORICAL SOCIETY	HISTORIC PRESERVATION	32.21547	-110.90675	95058.0	91717.0
BISBEE COUNCIL ON THE ARTS & HUMANITIES	BISBEE COUNCIL ON THE ARTS & HUMANITIES	HISTORY MUSEUM	31.40365	-109.90657	222862.0	195433.0
BISBEE MINING & HISTORICAL MUSEUM	BISBEE COUNCIL ON THE ARTS & HUMANITIES	HISTORIC PRESERVATION	31.40365	-109.90657	222862.0	195433.0
BLACK CANYON HISTORICAL SOCIETY	BLACK CANYON HISTORICAL SOCIETY	HISTORIC PRESERVATION	34.07475	-112.1387	0.0	0.0
BOUSE GENEALOGICAL SOCIETY	BOUSE GENEALOGICAL SOCIETY	HISTORIC PRESERVATION	33.93334	-114.0046	0.0	0.0
BUCKEYE MUSEUM	BUCKEYE VALLEY HISTORICAL & ARCHAEOLOGICAL MUSEUM	HISTORY MUSEUM	33.39445	-112.55101	0.0	0.0
BUFFALO SOLDIERS OF THE ARIZONA TERRITORY	BUFFALO SOLDIERS OF THE ARIZONA TERRITORY	HISTORIC PRESERVATION	33.45864	-111.72085	4594.0	4594.0
BULLION PLAZA CULTURAL CENTER & MUSEUM	BULLION PLAZA CULTURAL CENTER & MUSEUM	HISTORY MUSEUM	33.39646	-110.87103	120157.0	120157.0
CABEZA PRIETA NATIONAL WILD LIFE REFUGE	CABEZA PRIETA NATURAL HISTORY ASSOCIATION	ZOO, AQUARIUM, OR WILDLIFE CONSERVATION	32.39747	-112.87213	0.0	0.0
CAMP VERDE HISTORICAL SOCIETY	CAMP VERDE HISTORICAL SOCIETY	HISTORIC PRESERVATION	34.56227	-111.85311	0.0	0.0
CARTWRIGHT HERITAGE HOUSE MUSEUM	CARTWRIGHT HERITAGE HOUSE MUSEUM	HISTORIC PRESERVATION	33.61362	-112.29433	0.0	0.0
CASA GRANDE RUINS	FRIENDS OF THE CASA GRANDE RUINS	HISTORIC PRESERVATION	32.50189	-111.22852	0.0	0.0
CASA GRANDE VALLEY HISTORICAL SOCIETY	CASA GRANDE VALLEY HISTORICAL SOCIETY INC	HISTORIC PRESERVATION	32.87963	-111.75394	126348.0	104642.0
CASTANEDA MUSEUM OF ETHNIC COSTUME	CASTANEDA MUSEUM OF ETHNIC COSTUME INC	ART MUSEUM	32.32956	-110.9168	42025.0	42025.0
CATTLE TRACK ARTS AND PRESERVATION	CATTLE TRACK ARTS AND PRESERVATION	HISTORIC PRESERVATION	33.52583	-111.91725	0.0	0.0
CAVE CREEK MUSEUM	CAVE CREEK MUSEUM INC	HISTORY MUSEUM	33.83384	-111.94336	108260.0	91392.0
CENTER FOR DESERT ARCHAEOLOGY	ARCHAEOLOGY SOUTHWEST	HISTORIC PRESERVATION	32.226	-110.97215	2987378.0	865218.0
CHALLENGER LEARNING CENTER OF ARIZONA	CHALLENGER SPACE CENTER	GENERAL MUSEUM	33.67655	-112.23791	1045484.0	992542.0
CHANDLER HISTORICAL MUSEUM	CHANDLER HISTORICAL SOCIETY CHANDLER HISTORICAL MUSEUM	HISTORIC PRESERVATION	33.30463	-111.83867	33017.0	32367.0
CHANDLER MUSEUM	CHANDLER HISTORICAL SOCIETY CHANDLER HISTORICAL MUSEUM	HISTORIC PRESERVATION	33.30463	-111.83867	33017.0	32367.0
CHILDREN'S MUSEUM OF PHOENIX	CHILDRENS MUSEUM OF PHOENIX	CHILDREN'S MUSEUM	33.4504	-112.06503	3994098.0	3681237.0
CHILDREN'S MUSEUM OF YUMA COUNTY	CHILDRENS MUSEUM OF YUMA COUNTY INC	GENERAL MUSEUM	32.61413	-114.56219	0.0	0.0
CHINESE CULTURAL CENTER	TUCSON CHINESE ASSOCIATION INC	GENERAL MUSEUM	32.20523	-110.94673	299622.0	235534.0
CHINO VALLEY HISTORICAL SOCIETY	CHINO VALLEY HISTORICAL SOCIETY	HISTORIC PRESERVATION	34.76301	-112.48538	0.0	0.0
CLARKDALE HISTORICAL SOCIETY AND MUSEUM	THE CLARKDALE HISTORICAL SOCIETY AND MUSEUM	HISTORIC PRESERVATION	34.75492	-112.05514	0.0	0.0
COCHISE COUNTY HISTORICAL SOCIETY	COCHISE COUNTY HISTORICAL & ARCHAEOLOGICAL SOCIETY	HISTORIC PRESERVATION	31.35079	-109.55036	0.0	0.0
COLORADO RIVER HISTORICAL SOCIETY	COLORADO RIVER HISTORICAL SOCIETY INC	HISTORIC PRESERVATION	35.15327	-114.56741	0.0	0.0
COLOSSAL CAVE MOUNTAIN PARK	PIMA COUNTY PARKLANDS FOUNDATION	ARBORETUM, BOTANICAL GARDEN, OR NATURE CENTER	31.94611	-110.78583	33121.0	33121.0
COMMEMORATIVE AIR FORCE	COMMEMORATIVE AIR FORCE	GENERAL MUSEUM	33.45303	-111.73592	0.0	0.0
COOLIDGE HISTORICAL SOCIETY	COOLIDGE HISTORICAL SOCIETY INC	HISTORIC PRESERVATION	32.97444	-111.51671	0.0	0.0
CORNVILLE HISTORICAL SOCIETY	CORNVILLE HISTORICAL SOCIETY	HISTORIC PRESERVATION	34.72331	-111.9241	0.0	0.0
CORONADO NATIONAL FOREST HERITAGE SOCIETY	CORONADO NATIONAL FOREST HERITAGE SOCIETY	HISTORIC PRESERVATION	32.20911	-110.90206	0.0	0.0
CROWN KING HISTORICAL SOCIETY	CROWN KING HISTORICAL SOCIETY	HISTORIC PRESERVATION	34.21902	-112.30557	0.0	0.0
DEGRAZIA	FRIENDS OF DEGRAZIA INC	GENERAL MUSEUM	33.54206	-112.04797	0.0	0.0
DESERT BOTANICAL GARDEN	DESERT BOTANICAL GARDEN	ARBORETUM, BOTANICAL GARDEN, OR NATURE CENTER	33.46385	-111.94167	15231373.0	14206450.0
DESERT CABALLEROS WESTERN MUSEUM	MARICOPA COUNTY HISTORICAL SOCIETY	GENERAL MUSEUM	33.96856	-112.73092	2882005.0	2291796.0
DWARF CAR MUSEUM	DWARF CAR MUSEUM INC	GENERAL MUSEUM	32.89496	-112.13654	0.0	0.0
EARTH SCIENCE MUSEUM	EARTH SCIENCE MUSEUM	SCIENCE & TECHNOLOGY MUSEUM OR PLANETARIUM	33.52363	-112.12906	7162.0	7082.0
EASTERN ARIZONA MUSEUM & HISTORICAL SOCIETY	EASTERN ARIZONA MUSEUM AND HISTORICAL SOC INC OF GRAHAM COU	HISTORIC PRESERVATION	32.89468	-109.84893	0.0	0.0
FORT HUACHUCA MUSEUM	MILITARY INTELLIGENCE CORP ASSOCIATION	GENERAL MUSEUM	31.55259	-110.35049	107758.0	107758.0
FORT TUTHILL MILITARY MUSEUM	FORT TUTHILL MILITARY MUSEUM INC	GENERAL MUSEUM	33.55917	-112.09537	0.0	0.0
FOUR RIVERS HERITAGE CENTER AVONDALE ARIZONA	FOUR RIVERS HERITAGE CENTER	HISTORY MUSEUM	33.44911	-112.35675	0.0	0.0
FRANK LLOYD WRIGHT FOUNDATION	FRANK LLOYD WRIGHT FOUNDATION	HISTORIC PRESERVATION	33.55318	-111.89292	8625447.0	7564547.0
FRED LAWRENCE WHIPPLE OBSERVATORY	PRESIDENT AND FELLOWS OF HARVARD COLLEGE	SCIENCE & TECHNOLOGY MUSEUM OR PLANETARIUM	42.36977	-71.11216	83181439574.0	5840349457.0
GADSDEN-PACIFIC DIVISION TOY TRAIN MUSEUM	GADSDEN-PACIFIC DIVISION TOY TRAIN OPERATING MUSEUM LTD	GENERAL MUSEUM	32.27958	-111.01059	109537.0	44386.0
GENEALOGICAL SOCIETY OF YUMA ARIZONA	GENEALOGICAL SOCIETY OF YUMA ARIZONA	HISTORIC PRESERVATION	32.68676	-114.626	0.0	0.0
GILA COUNTY HISTORICAL SOCIETY	GILA COUNTY HISTORICAL SOCIETY INC	HISTORIC PRESERVATION	33.40766	-110.79332	0.0	0.0
GILBERT HISTORICAL MUSEUM	GILBERT HISTORICAL SOCIETY INC	HISTORIC PRESERVATION	33.34933	-111.78654	179619.0	163579.0
GILBERT HISTORICAL SOCIETY	GILBERT HISTORICAL SOCIETY INC	HISTORIC PRESERVATION	33.34945	-111.78966	179619.0	163579.0
GLENDALE ARIZONA HISTORICAL SOCIETY	GLENDALE ARIZONA HISTORICAL SOCIETY	HISTORIC PRESERVATION	33.57645	-112.19062	0.0	0.0
GLENDALE POLICE MUSEUM	GLENDALE POLICE MUSEUM	GENERAL MUSEUM	33.53677	-112.18238	0.0	0.0
GRAHAM COUNTY HISTORICAL SOCIETY	GRAHAM COUNTY HISTORICAL SOCIETY	HISTORIC PRESERVATION	32.8492	-109.75713	0.0	0.0
GRAND CANYON HISTORICAL SOCIETY	GRAND CANYON HISTORICAL SOCIETY	HISTORIC PRESERVATION	35.20847	-111.61224	0.0	0.0
GRAND CANYON NATIONAL PARK	GRAND CANYON ASSOCIATION	ARBORETUM, BOTANICAL GARDEN, OR NATURE CENTER	36.05442	-112.13862	9352062.0	6714500.0
GRAND CANYON TRUST	GRAND CANYON TRUST INC	ARBORETUM, BOTANICAL GARDEN, OR NATURE CENTER	35.22528	-111.65781	7126582.0	4429057.0
GREEN VALLEY GENEALOGICAL SOCIETY	THE GREEN VALLEY GENEALOGICAL SOCIETY	HISTORIC PRESERVATION	31.93593	-110.99003	0.0	0.0
GREENLEE COUNTY HISTORICAL SOCIETY	GREENLEE COUNTY HISTORICAL SOCIETY INC	HISTORIC PRESERVATION	33.0113	-109.24553	0.0	0.0
GREENLEE COUNTY HISTORICAL SOCIETY	GREENLEE COUNTY HISTORICAL	HISTORIC PRESERVATION	33.0113	-109.24553	0.0	0.0
HEALTH WORLD EDUCATION	HEALTH WORLD EDUCATION LTD	CHILDREN'S MUSEUM	33.68534	-111.89545	173397.0	173397.0
HEARD MUSEUM	HEARD MUSEUM	GENERAL MUSEUM	33.47318	-112.07293	13971506.0	7495330.0
HIGH DESERT HERITAGE MUSEUM	HIGH DESERT HERITAGE MUSEUM INC	HISTORY MUSEUM	34.3214	-112.11654	0.0	0.0
HIGHLANDS CENTER FOR NATURAL HISTORY	HIGHLANDS CENTER FOR NATURAL HISTORY	NATURAL HISTORY MUSEUM	34.45536	-112.38526	738479.0	720354.0
HISTORIC ROUTE 66 ASSOCIATION OF	HISTORIC ROUTE 66 ASSOCIATION OF	HISTORIC PRESERVATION	35.18888	-114.05508	417726.0	198935.0
HOUSE OF BROADCASTING	HOUSE OF BROADCASTING INC	HISTORY MUSEUM	33.49852	-111.92664	0.0	0.0
HUACHUCA MUSEUM SOCIETY	HUACHUCA MUSEUM SOCIETY	HISTORIC PRESERVATION	31.55454	-110.27246	75386.0	45651.0
HUBBELL TRADING POST NATIONAL HISTORIC SITE	FRIENDS OF HUBBELL TRADING POST NATIONAL HISTORICAL SITE IN	HISTORIC PRESERVATION	33.62623	-112.01987	332725.0	38849.0
INDIAN RIDGE HISTORIC DISTRICT	INDIAN RIDGE HISTORIC DISTRICT INC	HISTORIC PRESERVATION	32.25285	-110.84318	0.0	0.0
INTERNATIONAL NURSING MUSEUM	INTERNATIONAL NURSING MUSEUM	GENERAL MUSEUM	33.49312	-111.89665	0.0	0.0
JAMES WILLARD SCHULTZ - LONE WOLF MUSEUM	JAMES WILLARD SCHULTZ - LONE WOLF MUSEUM INC	GENERAL MUSEUM	33.5479	-111.95373	35842.0	24654.0
JEFFERSON PARK	FRIENDS OF JEFFERSON PARK INC	HISTORIC PRESERVATION	32.23545	-110.94024	0.0	0.0
JEROME HISTORICAL SOCIETY	JEROME HISTORICAL SOCIETY INC	HISTORIC PRESERVATION	34.74987	-112.11387	470162.0	324146.0
JEWISH HISTORY MUSEUM	JEWISH HISTORY MUSEUM	HISTORIC PRESERVATION	32.21418	-110.9705	157220.0	148673.0
JOHN WESLEY POWELL MEMORIAL MUSEUM	JOHN WESLEY POWELL MEMORIAL MUSEUM HISTORICAL AND ARCHAEOLO	GENERAL MUSEUM	36.91375	-111.46716	210130.0	174930.0
JOHNSON HISTORICAL MUSEUM OF THE SOUTHWEST	JOHNSON HISTORICAL MUSEUM OF THE SOUTHWEST	HISTORY MUSEUM	33.5996	-112.28134	608068.0	328272.0
KINGMAN AIRSHOW	KINGMAN AIRSHOW INC	HISTORIC PRESERVATION	35.20594	-114.03429	0.0	0.0
KINGMAN ARMY AIR FIELD HISTORICAL SOCIETY	KINGMAN ARMY AIR FIELD HISTORICAL SOCIETY INC	HISTORIC PRESERVATION	35.21233	-113.78626	0.0	0.0
KINGMAN VETERANS MEMORIAL TRUST	KINGMAN VETERANS MEMORIAL TR	HISTORIC PRESERVATION	35.20466	-114.0314	0.0	0.0
LAKE HAVASU CITY HISTORICAL SOCIETY	LAKE HAVASU CITY HISTORICAL SOCIETY	HISTORIC PRESERVATION	34.48002	-114.35119	0.0	0.0
LAKE HAVASU GENEALOGICAL SOCIETY	LAKE HAVASU GENEALOGICAL SOCIETY	HISTORIC PRESERVATION	34.47542	-114.32857	0.0	0.0
LAKE POWELL ART ASSOCIATION	LAKE POWELL ART ASSOCIATION	ART MUSEUM	36.91375	-111.46716	0.0	0.0
LITCHFIELD PARK HISTORICAL SOCIETY	LITCHFIELD PARK HISTORICAL SOCIETY	HISTORIC PRESERVATION	33.50828	-112.39282	0.0	0.0
LITCHFIELD PARK SCOUT LODGE PRESERVATION	LITCHFIELD PARK SCOUT LODGE PRESERVATION	HISTORIC PRESERVATION	33.50319	-112.35845	0.0	0.0
LOWELL OBSERVATORY	LOWELL OBSERVATORY	SCIENCE & TECHNOLOGY MUSEUM OR PLANETARIUM	35.19935	-111.66222	8276318.0	8056313.0
MAMMOTH HISTORICAL SOCIETY	MAMMOTH HISTORICAL SOCIETY	HISTORIC PRESERVATION	32.70968	-110.64582	0.0	0.0
MARANA HERITAGE CONSERVANCY	MARANA HERITAGE CONSERVANCY	HISTORIC PRESERVATION	32.44827	-111.21143	0.0	0.0
MARICOPA COUNTY HISTORICAL SOCIETY	MARICOPA COUNTY HISTORICAL SOCIETY	HISTORIC PRESERVATION	33.96856	-112.73092	2882005.0	2291796.0
MARICOPA COUNTY JUSTICE MUSEUM & LEARNING CENTER FOUNDATION	MARICOPA COUNTY JUSTICE MUSEUM & LEARNING CENTER FOUNDATION	HISTORY MUSEUM	33.4576	-112.07159	0.0	0.0
MARICOPA HISTORICAL SOCIETY	MARICOPA HISTORICAL SOCIETY	HISTORIC PRESERVATION	33.06297	-112.01212	0.0	0.0
MARICOPA LIVE STEAMERS RAILROAD HERITAGE PRESERVATION SOCIETY	MARICOPA LIVE STEAMERS RAILROAD HERITAGE PRESERVATION SOCIE	HISTORIC PRESERVATION	33.64216	-112.05657	83003.0	83003.0
MARTIN AUTO MUSEUM	MARTIN AUTO MUSEUM INC	GENERAL MUSEUM	33.64709	-112.11417	248956.0	248956.0
MCFARLAND HISTORICAL STATE PARK	MCFARLAND HISTORICAL STATE PARKADVISORY COMMITTEE INC	HISTORIC PRESERVATION	33.34545	-111.87981	0.0	0.0
MESA CITY SPORTS HALL OF FAME	MESA CITY SPORTS HALL OF FAME	GENERAL MUSEUM	33.4147	-111.82929	0.0	0.0
MESA HISTORICAL AND ARCHEOLOGICAL SOCIETY	MESA HISTORICAL AND ARCHEOLOGICAL SOCIETY INC	HISTORIC PRESERVATION	33.41478	-111.82988	182387.0	181846.0
MESA HISTORICAL MUSEUM	MESA HISTORICAL AND ARCHEOLOGICAL SOCIETY INC	HISTORIC PRESERVATION	33.41803	-111.83136	182387.0	181846.0
MIAMI SPORTS GROUP	MIAMI SPORTS GROUP	GENERAL MUSEUM	33.32496	-111.59328	30349.0	30349.0
MOHAVE COUNTY HISTORICAL SOCIETY	MOHAVE COUNTY HISTORICAL SOCIETY INC	HISTORIC PRESERVATION	35.19034	-114.0623	268733.0	223537.0
MUSEUM OF CONTEMPORARY ART	MUSEUM OF CONTEMPORARY ART	ART MUSEUM	32.21839	-110.97221	556608.0	506133.0
MUSEUM OF NORTHERN ARIZONA	MUSEUM OF NORTHERN ARIZONA INC	HISTORY MUSEUM	35.23431	-111.66436	5372021.0	3464222.0
MUSEUM OF SCIENCE AND SUSTAINABILITY	MUSEUM OF SCIENCE AND SUSTAINABILITY	SCIENCE & TECHNOLOGY MUSEUM OR PLANETARIUM	33.38031	-111.86464	0.0	0.0
MUSEUM OF TELEVISION	MUSEUM OF TELEVISION	HISTORY MUSEUM	33.45768	-112.07734	405068.0	229263.0
MUSEUM OF THE HORSE SOLDIER	MUSEUM OF THE HORSE SOLDIER INC	GENERAL MUSEUM	32.24597	-110.85337	44120.0	44120.0
NACO HERITAGE ALLIANCE	NACO HERITAGE ALLIANCE INC	HISTORIC PRESERVATION	31.53243	-110.28595	0.0	0.0
NATURAL HISTORY NETWORK	NATURAL HISTORY NETWORK	HISTORIC PRESERVATION	44.3969	-68.25552	0.0	0.0
NAVAJO CODE TALKERS FOUNDATION	NAVAJO CODE TALKERS FOUNDATION	HISTORY MUSEUM	35.35	-109.05	0.0	0.0
NAVAJO COUNTY GENEALOGICAL SOCIETY	NAVAJO COUNTY GENEALOGICAL SOCIETY	HISTORIC PRESERVATION	35.04617	-110.74203	0.0	0.0
NAVAJO COUNTY HISTORICAL SOCIETY	NAVAJO COUNTY HISTORICAL SOCIETY	HISTORIC PRESERVATION	34.91205	-110.15154	43996.0	41295.0
NORTHERN ARIZONA PIONEERS HISTORICAL SOCIETY	NORTHERN ARIZONA PIONEERS HISTORICAL SOCIETY	HISTORIC PRESERVATION	35.22355	-111.65579	73742.0	71429.0
NORTHERN GILA COUNTY HISTORICAL SOCIETY	NORTHERN GILA COUNTY HISTORICAL SOCIETY	HISTORIC PRESERVATION	34.25432	-111.29443	86778.0	67525.0
NORTHERN GILA COUNTY HISTORICAL SOCIETY	NORTHERN GILA COUNTY HISTORICAL SOCIETY	HISTORIC PRESERVATION	34.25825	-111.27972	86778.0	67525.0
NOVA ROMA	NOVA ROMA	HISTORIC PRESERVATION	33.46134	-111.97811	0.0	0.0
OATMAN TAILINGS OF TIME HISTORICAL SOCIETY	OATMAN TAILINGS OF TIME HISTORICAL SOCIETY	HISTORIC PRESERVATION	35.02707	-114.38458	0.0	0.0
OLD PEARCE PRESERVATION ASSOCIATION	OLD PEARCE PRESERVATION ASSOCIATION	HISTORIC PRESERVATION	31.90385	-109.69889	0.0	0.0
OLD PUEBLO TROLLEY	OLD PUEBLO TROLLEY INC	GENERAL MUSEUM	32.22064	-110.9685	113794.0	113794.0
ORACLE HISTORICAL SOCIETY	ORACLE HISTORICAL SOCIETY INC	HISTORIC PRESERVATION	32.60697	-110.80749	0.0	0.0
ORO VALLEY HISTORICAL SOCIETY	ORO VALLEY HISTORICAL SOCIETY	HISTORIC PRESERVATION	32.4043	-110.97856	0.0	0.0
OTIS H CHIDESTER SCOUT MUSEUM OF SOUTHERN ARIZONA	OTIS H CHIDESTER SCOUT MUSEUM OF SOUTHERN ARIZONA	GENERAL MUSEUM	32.26127	-110.94238	0.0	0.0
OVER THE RAINBOW BUTTERFLY GARDEN	OVER THE RAINBOW BUTTERFLY GARDEN INC	CHILDREN'S MUSEUM	35.30352	-111.55562	0.0	0.0
PARADISE AND PACIFIC RAILROAD	PARADISE AND PACIFIC RAILROAD	GENERAL MUSEUM	33.75226	-112.10101	0.0	0.0
PARKER AREA HISTORICAL SOCIETY	PARKER AREA HISTORICAL SOCIETY	HISTORIC PRESERVATION	34.14757	-114.28754	0.0	0.0
PASCUA YAQUI TRIBE OF ARIZONA	YOEMEM TEKIA FOUNDATION	GENERAL MUSEUM	32.11207	-111.06753	62448.0	62329.0
PATAGONIA MUSEUM	PATAGONIA MUSEUM	GENERAL MUSEUM	31.53309	-110.71615	0.0	0.0
PEORIA ARIZONA HISTORICAL SOCIETY	PEORIA ARIZONA HISTORICAL SOCIETY INC	HISTORIC PRESERVATION	33.57891	-112.23768	54930.0	54930.0
PETRIFIED FOREST NATIONAL PARK	FRIENDS OF PETRIFIED FOREST NATIONAL PARK	ARBORETUM, BOTANICAL GARDEN, OR NATURE CENTER	35.06816	-109.77972	0.0	0.0
PHIPPEN ART MUSEUM	GEORGE PHIPPEN MEMORIAL FOUNDATION	ART MUSEUM	34.47137	-112.42997	692292.0	568341.0
PHOENIX ART MUSEUM	PHOENIX ART MUSEUM	ART MUSEUM	33.46697	-112.07256	9540336.0	8402608.0
PHOENIX HERPETOLOGICAL SOCIETY	PHOENIX HERPETOLOGICAL SOCIETY INC	ZOO, AQUARIUM, OR WILDLIFE CONSERVATION	33.67597	-111.88119	361962.0	353795.0
PHOENIX POLICE MUSEUM	PHOENIX POLICE MUSEUM	HISTORY MUSEUM	33.446	-112.07628	162269.0	135353.0
PHOENIX ZOO	PHOENIX ZOO	ZOO, AQUARIUM, OR WILDLIFE CONSERVATION	33.44922	-111.94794	89540.0	89540.0
PIMA COUNTY GENEALOGY SOCIETY	PIMA COUNTY GENEALOGY SOCIETY	HISTORIC PRESERVATION	32.22463	-110.88393	0.0	0.0
PIMA COUNTY SPORTS HALL OF FAME	PIMA COUNTY SPORTS HALL OF FAME	GENERAL MUSEUM	32.221	-110.9725	23278.0	23278.0
PIMERIA ALTA HISTORICAL SOCIETY	PIMERIA ALTA HISTORICAL SOCIETY	HISTORIC PRESERVATION	31.33467	-110.94126	28726.0	23488.0
PINETOP LAKESIDE HISTORICAL SOCIETY	PINETOP LAKESIDE HISTORICAL SOCIETY INC	HISTORIC PRESERVATION	34.15297	-109.97683	0.0	0.0
PIONEER ARIZONA LIVING HISTORY MUSEUM	PIONEER ARIZONA FOUNDATION	HISTORY MUSEUM	33.81923	-112.1443	247178.0	227512.0
PIONEER AUTO TRAILS HISTORICAL SOCIETY PATHS	PIONEER AUTO TRAILS HISTORICAL SOCIETY PATHS	HISTORIC PRESERVATION	31.69404	-110.04318	0.0	0.0
PLEASANT VALLEY HISTORICAL SOCIETY	PLEASANT VALLEY HISTORICAL SOCIETY	HISTORIC PRESERVATION	34.08926	-111.16961	0.0	0.0
POSTAL HISTORY FOUNDATION	POSTAL HISTORY FOUNDATION INC	GENERAL MUSEUM	32.23326	-110.96093	188605.0	183875.0
PRESCOTT ANIMAL PARK	PRESCOTT ANIMAL PARK ASSOCIATION	ZOO, AQUARIUM, OR WILDLIFE CONSERVATION	34.61475	-112.4455	450155.0	450155.0
PRESCOTT COLLEGE ART GALLERY	PRESCOTT COLLEGE INC	ART MUSEUM	34.5445	-112.47635	22275896.0	21860482.0
PRESCOTT CREEKS PRESERVATION ASSOCIATION	PRESCOTT CREEKS PRESERVATION ASSOCIATION	HISTORIC PRESERVATION	34.53985	-112.46875	326524.0	318119.0
PRESCOTT VALLEY HISTORICAL SOCIETY OF ARIZONA	PRESCOTT VALLEY HISTORICAL SOCIETY OF ARIZONA	HISTORIC PRESERVATION	34.59645	-112.33248	0.0	0.0
PRIDE SOCIETY	PRIDE SOCIETY	HISTORIC PRESERVATION	32.83536	-109.1579	0.0	0.0
PUEBLO GRANDE MUSEUM AUXILIARY	PUEBLO GRANDE MUSEUM AUXILIARY	GENERAL MUSEUM	33.44675	-111.98478	181587.0	41700.0
QUARTZSITE HISTORICAL SOCIETY	QUARTZSITE HISTORICAL SOCIETY	HISTORIC PRESERVATION	33.66642	-114.2174	0.0	0.0
RED PUEBLO MUSEUM AND HERITAGE PARK	RED PUEBLO MUSEUM AND HERITAGE PARK INC	ARBORETUM, BOTANICAL GARDEN, OR NATURE CENTER	36.90357	-112.75448	0.0	0.0
REX ALLENS ARIZONA COWBOY MUSEUM	REX ALLENS ARIZONA COWBOY MUSEUM	GENERAL MUSEUM	32.25262	-109.83101	0.0	0.0
RIVER OF TIME MUSEUM	RIVER OF TIME MUSEUM	HISTORIC PRESERVATION	33.60509	-111.72147	0.0	0.0
ROBERT LOUIS STEVENSON MUSEUM	ROBERT LOUIS STEVENSON MUSEUM- PRESERVATION FOUNDATION INC	HISTORY MUSEUM	33.54994	-111.92175	167690.0	149569.0
ROBLES RANCH	FRIENDS OF ROBLES RANCH INC	GENERAL MUSEUM	32.077	-111.31273	0.0	0.0
ROSSON HOUSE HERITAGE SQUARE & FOUNDATION	ROSSON HOUSE HERITAGE SQUARE & FOUNDATION INC	HISTORY MUSEUM	33.44954	-112.06615	299904.0	293199.0
ROUTE 66 MUSEUM	HISTORIC ROUTE 66 ASSOCIATION OF	HISTORIC PRESERVATION	35.18888	-114.05508	417726.0	198935.0
RUBY MINES RESTORATION PROJECT	RUBY MINES RESTORATION PROJECT	HISTORIC PRESERVATION	32.38486	-111.11443	0.0	0.0
SAGUARO NATIONAL PARK	FRIENDS OF SAGUARO NATIONAL PARK INC	ARBORETUM, BOTANICAL GARDEN, OR NATURE CENTER	32.24472	-111.16237	263971.0	242537.0
SAN MANUEL HISTORICAL SOCIETY	SAN MANUEL HISTORICAL SOCIETY	HISTORIC PRESERVATION	32.60531	-110.63582	0.0	0.0
SAN PEDRO VALLEY ARTS AND HISTORICAL SOCIETY	SAN PEDRO VALLEY ARTS AND HISTORICAL SOCIETY INC	HISTORIC PRESERVATION	31.9677	-110.29461	0.0	0.0
SAN TAN HISTORICAL SOCIETY	SAN TAN HISTORICAL SOCIETY INC	HISTORIC PRESERVATION	33.26267	-111.6345	0.0	0.0
SANTA CRUZ VALLEY HISTORIC MUSEUM	SANTA CRUZ VALLEY HISTORIC MUSEUM	HISTORY MUSEUM	32.74996	-111.67693	0.0	0.0
SCIENCE CENTER OF INQUIRY	THE SCIENCE CENTER OF INQUIRY	SCIENCE & TECHNOLOGY MUSEUM OR PLANETARIUM	33.60679	-111.71713	104919.0	104919.0
SCIENCE DOWNTOWN	SCIENCE DOWNTOWN	SCIENCE & TECHNOLOGY MUSEUM OR PLANETARIUM	32.13943	-110.9204	0.0	0.0
SCOTTSDALE HISTORICAL SOCIETY	SCOTTSDALE HISTORICAL SOCIETY INC	HISTORIC PRESERVATION	33.46706	-111.92631	84225.0	80243.0
SCOTTSDALE MUSEUM OF NATURAL HISTORY AND CULTURAL CENTER	SCOTTSDALE MUSEUM OF NATURAL HISTORY & CULTURAL CENTER	HISTORY MUSEUM	33.47239	-111.77683	300.0	300.0
SCOTTSDALE MUSEUM OF THE WEST	SCOTTSDALE MUSEUM OF THE WEST INC	GENERAL MUSEUM	33.49244	-111.92902	1653863.0	1453863.0
SCOTTSDALE RAILROAD AND MECHANICAL SOCIETY	SCOTTSDALE RAILROAD AND MECHANICAL SOCIETY	HISTORY MUSEUM	33.53857	-111.92339	528131.0	527203.0
SEDONA HISTORICAL SOCIETY	SEDONA HISTORICAL SOCIETY INC	HISTORIC PRESERVATION	34.87888	-111.76115	140892.0	116803.0
SELIGMAN HISTORICAL SOCIETY	SELIGMAN HISTORICAL SOCIETY	HISTORIC PRESERVATION	35.32767	-112.87744	0.0	0.0
SHARLOT HALL HISTORICAL SOCIETY OF ARIZONA	SHARLOT HALL HISTORICAL SOCIETY OF ARIZONA	HISTORIC PRESERVATION	34.54155	-112.46419	736216.0	679217.0
SHEMER ART CENTER & MUSEUM	SHEMER ART CENTER AND MUSEUM ASSOCIATION INC SACAMA	ART MUSEUM	33.50482	-111.97235	166339.0	166339.0
SHOW LOW HISTORIAL SOCIETY &	SHOW LOW HISTORICAL SOCIETY	HISTORIC PRESERVATION	34.25292	-110.02991	47378.0	45165.0
SHOW LOW HISTORICAL SOCIETY	SHOW LOW HISTORICAL SOCIETY	HISTORIC PRESERVATION	34.25274	-110.03623	47378.0	45165.0
SHOW LOW HISTORICAL SOCIETY MUSEUM	SHOW LOW HISTORICAL SOCIETY	HISTORIC PRESERVATION	34.25274	-110.03623	47378.0	45165.0
SIERRA VISTA HISTORICAL SOCIETY	SIERRA VISTA HISTORICAL SOCIETY INC	HISTORIC PRESERVATION	31.55454	-110.27246	0.0	0.0
SIERRA VISTA HISTORICAL SOCIETY	SIERRA VISTA HISTORICAL SOCIETY INC	HISTORIC PRESERVATION	31.55454	-110.27246	0.0	0.0
SKULL VALLEY HISTORICAL SOCIETY	THE SKULL VALLEY HISTORICAL SOCIETY	HISTORIC PRESERVATION	34.55463	-112.71074	0.0	0.0
SMOKI MUSEUM	THE SMOKI MUSEUM	GENERAL MUSEUM	34.54397	-112.45921	446305.0	357692.0
SOLAR CULTURE GALLERY	SOLAR CULTURE GALLERY INCORPORATED	ART MUSEUM	32.22037	-110.96328	171613.0	171613.0
SONORAN ARTHROPOD STUDIES	SONORAN ARTHROPOD STUDIES INC	GENERAL MUSEUM	32.27284	-110.97821	64843.0	64567.0
SONORAN ARTS LEAGUE	SONORAN ARTS LEAGUE INC	ART MUSEUM	33.83116	-111.951	157093.0	156528.0
SONORAN DESERT NATIONAL MONUMENT	FRIENDS OF THE SONORAN DESERT NATIONAL MONUMENT	HISTORIC PRESERVATION	33.45377	-112.0739	14387.0	14387.0
SONORAN SEA AQUARIUM	SONORAN SEA AQUARIUM	ZOO, AQUARIUM, OR WILDLIFE CONSERVATION	32.19934	-110.77773	0.0	0.0
SOUTHWEST CIVIL WAR ASSOCIATION	SOUTHWEST LIVING HISTORY ASSOCIATION	HISTORIC PRESERVATION	33.74653	-112.20974	0.0	0.0
SULPHUR SPRINGS VALLEY HISTORICAL SOCIETY	SULPHUR SPRINGS VALLEY HISTORICAL SOCIETY INC	HISTORIC PRESERVATION	32.25253	-109.83221	24322.0	21888.0
SUN CITIES AREA HISTORICAL SOCIETY	SUN CITIES AREA HISTORICAL SOCIETY INC	HISTORIC PRESERVATION	33.60091	-112.2931	0.0	0.0
SUN CITIES ART MUSEUM	WEST VALLEY ART MUSEUM-SUN CITIES MUSEUM OF ART INC	ART MUSEUM	33.60642	-112.24	65974.0	65974.0
SUNNYSLOPE HISTORICAL SOCIETY	SUNNYSLOPE HISTORICAL SOCIETY	HISTORIC PRESERVATION	33.57112	-112.0631	28026.0	26817.0
SUPERIOR HISTORICAL SOCIETY	SUPERIOR HISTORICAL SOCIETY INC	HISTORIC PRESERVATION	33.28835	-111.10267	0.0	0.0
SUPERSTITION MOUNTAIN HISTORICAL SOCIETY	SUPERSTITION MOUNTAIN HISTORICAL SOCIETY INC	HISTORIC PRESERVATION	33.42223	-111.54773	522474.0	295557.0
TEMPE HISTORICAL SOCIETY	TEMPE HISTORICAL SOCIETY	HISTORIC PRESERVATION	33.45059	-111.93528	0.0	0.0
THREE RIVERS HISTORICAL SOCIETY	THREE RIVERS HISTORICAL SOCIETY	HISTORIC PRESERVATION	33.41119	-112.41477	0.0	0.0
TOHONO CHUL PARK	TOHONO CHUL PARK INC	ARBORETUM, BOTANICAL GARDEN, OR NATURE CENTER	32.33921	-110.98275	2764836.0	1933884.0
TOVREA CARRARO SOCIETY	TOVREA CARRARO SOCIETY	HISTORIC PRESERVATION	33.45095	-111.9752	73628.0	66842.0
TRANSITION ZONE HORTICULTURAL INSTITUTE	TRANSITION ZONE HORTICULTURAL INSTITUTE INC	ARBORETUM, BOTANICAL GARDEN, OR NATURE CENTER	35.15751	-111.73454	542678.0	509033.0
TRUE WEST PRESERVATION SOCIETY	TRUE WEST PRESERVATION SOCIETY	HISTORIC PRESERVATION	33.78507	-111.96545	0.0	0.0
TUBAC HISTORICAL SOCIETY	TUBAC HISTORICAL SOCIETY	HISTORIC PRESERVATION	31.61326	-111.04793	15860.0	15118.0
TUCSON BOTANICAL GARDENS	TUCSON BOTANICAL GARDENS	ARBORETUM, BOTANICAL GARDEN, OR NATURE CENTER	32.24872	-110.9098	1917159.0	1217916.0
TUCSON CHINESE HISTORICAL SOCIETY	TUCSON CHINESE HISTORICAL SOCIETY	HISTORIC PRESERVATION	32.22093	-110.97095	0.0	0.0
TUCSON GARDEN RAILWAY SOCIETY	TUCSON GARDEN RAILWAY SOCIETY	ARBORETUM, BOTANICAL GARDEN, OR NATURE CENTER	32.17316	-111.13642	0.0	0.0
TUCSON MUSEUM OF ART	TUCSON MUSEUM OF ART	ART MUSEUM	32.22332	-110.97539	3890252.0	2678409.0
TUCSON MUSICIANS MUSEUM	TUCSON MUSICIANS MUSEUM	GENERAL MUSEUM	32.23421	-111.0034	0.0	0.0
TUCSON PRESIDIO	TUCSON PRESIDIO TRUST FOR HISTORIC PRESERVATION	HISTORIC PRESERVATION	32.22064	-110.9685	0.0	0.0
TUCSON ZOOLOGICAL SOCIETY	REID PARK ZOOLOGICAL SOCIETY	ZOO, AQUARIUM, OR WILDLIFE CONSERVATION	32.20889	-110.91805	8150855.0	3304365.0
TUCSONS BIRTHPLACE	FRIENDS OF TUCSONS BIRTHPLACE	HISTORIC PRESERVATION	32.22064	-110.9685	76626.0	75611.0
UDINOTTI MUSEUM OF FIGURATIVE ART	UDINOTTI MUSEUM OF FIGURATIVE ART INC	ART MUSEUM	33.52232	-111.94046	0.0	0.0
UNITED STATES COAST GUARD LIGHTSHIP SAILORS ASSOCIATION	THE UNITED STATES COAST GUARD LIGHTSHIP SAILORS ASSOCIATION	HISTORIC PRESERVATION	42.15495	-72.28939	0.0	0.0
VAIL PRESERVATION SOCIETY	VAIL PRESERVATION SOCIETY	HISTORIC PRESERVATION	32.00882	-110.71569	47375.0	47375.0
